[
  {
    "id": 0,
    "name": "Jovan Sanford",
    "currentLocation": {
      "lat": 49.8441,
      "lon": 20.6099
    },
    "averageSpeedKmPerHour": 78.36473713497551,
    "telephone": "+1352276045072"
  },
  {
    "id": 1,
    "name": "Maximilian Spencer",
    "currentLocation": {
      "lat": 50.5847,
      "lon": 28.1988
    },
    "averageSpeedKmPerHour": 82.4228131865137,
    "telephone": "+2870377580949"
  },
  {
    "id": 2,
    "name": "Yvonne Goyette",
    "currentLocation": {
      "lat": 51.7173,
      "lon": 24.2011
    },
    "averageSpeedKmPerHour": 74.36068063717016,
    "telephone": "+6387470582068"
  },
  {
    "id": 3,
    "name": "David Dach",
    "currentLocation": {
      "lat": 49.7087,
      "lon": 28.2288
    },
    "averageSpeedKmPerHour": 83.31525926233985,
    "telephone": "+3680565237370"
  },
  {
    "id": 4,
    "name": "Natalia Stracke",
    "currentLocation": {
      "lat": 48.9127,
      "lon": 7.0671
    },
    "averageSpeedKmPerHour": 89.98986934665002,
    "telephone": "+9975153039551"
  },
  {
    "id": 5,
    "name": "Glennie Shields",
    "currentLocation": {
      "lat": 52.8689,
      "lon": 18.2211
    },
    "averageSpeedKmPerHour": 88.89542273556167,
    "telephone": "+6103882796262"
  },
  {
    "id": 6,
    "name": "Roma Terry",
    "currentLocation": {
      "lat": 48.273,
      "lon": 22.3601
    },
    "averageSpeedKmPerHour": 64.98332312313676,
    "telephone": "+2641024971446"
  },
  {
    "id": 7,
    "name": "Trycia Gerlach",
    "currentLocation": {
      "lat": 48.6164,
      "lon": 8.2049
    },
    "averageSpeedKmPerHour": 84.55270190119643,
    "telephone": "+3801309398541"
  },
  {
    "id": 8,
    "name": "Nestor Farrell",
    "currentLocation": {
      "lat": 48.2247,
      "lon": 24.4071
    },
    "averageSpeedKmPerHour": 61.92296833847981,
    "telephone": "+4446008643850"
  },
  {
    "id": 9,
    "name": "Roger Crona",
    "currentLocation": {
      "lat": 47.4831,
      "lon": 19.5495
    },
    "averageSpeedKmPerHour": 83.56857073886981,
    "telephone": "+7702374184120"
  },
  {
    "id": 10,
    "name": "Gene Schimmel",
    "currentLocation": {
      "lat": 52.1689,
      "lon": 9.5318
    },
    "averageSpeedKmPerHour": 73.84179598771,
    "telephone": "+6333717454159"
  },
  {
    "id": 11,
    "name": "Jared Gaylord",
    "currentLocation": {
      "lat": 46.7662,
      "lon": 8.5922
    },
    "averageSpeedKmPerHour": 89.05722600828119,
    "telephone": "+9462418227975"
  },
  {
    "id": 12,
    "name": "Andreane Bergnaum",
    "currentLocation": {
      "lat": 46.7153,
      "lon": 21.8412
    },
    "averageSpeedKmPerHour": 67.98885144886609,
    "telephone": "+6529044976058"
  },
  {
    "id": 13,
    "name": "Eldred Kassulke",
    "currentLocation": {
      "lat": 48.5634,
      "lon": 23.2953
    },
    "averageSpeedKmPerHour": 80.41897100233574,
    "telephone": "+5663708774033"
  },
  {
    "id": 14,
    "name": "Gracie Schumm",
    "currentLocation": {
      "lat": 48.3504,
      "lon": 16.1377
    },
    "averageSpeedKmPerHour": 70.10937000142049,
    "telephone": "+4719406997607"
  },
  {
    "id": 15,
    "name": "Shanon Wisozk",
    "currentLocation": {
      "lat": 50.7725,
      "lon": 31.3778
    },
    "averageSpeedKmPerHour": 75.26725701394872,
    "telephone": "+4108525844486"
  },
  {
    "id": 16,
    "name": "Carley Kub",
    "currentLocation": {
      "lat": 52.7586,
      "lon": 20.1148
    },
    "averageSpeedKmPerHour": 82.53529457805942,
    "telephone": "+8590170643166"
  },
  {
    "id": 17,
    "name": "Joy Gibson",
    "currentLocation": {
      "lat": 52.4451,
      "lon": 20.4304
    },
    "averageSpeedKmPerHour": 64.83803064458098,
    "telephone": "+7718875577532"
  },
  {
    "id": 18,
    "name": "Krystal Christiansen",
    "currentLocation": {
      "lat": 48.9832,
      "lon": 12.9071
    },
    "averageSpeedKmPerHour": 65.71547216387125,
    "telephone": "+7356341577161"
  },
  {
    "id": 19,
    "name": "Armando Shields",
    "currentLocation": {
      "lat": 52.3701,
      "lon": 27.2388
    },
    "averageSpeedKmPerHour": 74.21151057982514,
    "telephone": "+6824484637926"
  },
  {
    "id": 20,
    "name": "Leland Beier",
    "currentLocation": {
      "lat": 48.8643,
      "lon": 14.6852
    },
    "averageSpeedKmPerHour": 61.648518846845334,
    "telephone": "+9237681696363"
  },
  {
    "id": 21,
    "name": "Houston Kreiger",
    "currentLocation": {
      "lat": 49.1954,
      "lon": 24.1751
    },
    "averageSpeedKmPerHour": 79.25130781358993,
    "telephone": "+5150483850744"
  },
  {
    "id": 22,
    "name": "Luisa Waelchi",
    "currentLocation": {
      "lat": 48.0359,
      "lon": 29.9999
    },
    "averageSpeedKmPerHour": 77.04002105503825,
    "telephone": "+1167971542756"
  },
  {
    "id": 23,
    "name": "Josiah Schaden",
    "currentLocation": {
      "lat": 52.9624,
      "lon": 13.7231
    },
    "averageSpeedKmPerHour": 63.05029458119021,
    "telephone": "+4035145194941"
  },
  {
    "id": 24,
    "name": "Liza Tillman",
    "currentLocation": {
      "lat": 47.1562,
      "lon": 26.5308
    },
    "averageSpeedKmPerHour": 69.82327167970655,
    "telephone": "+8815228617637"
  },
  {
    "id": 25,
    "name": "Julius Leffler",
    "currentLocation": {
      "lat": 48.7723,
      "lon": 27.9867
    },
    "averageSpeedKmPerHour": 68.73673443706232,
    "telephone": "+5803712752422"
  },
  {
    "id": 26,
    "name": "Jettie Trantow",
    "currentLocation": {
      "lat": 51.4135,
      "lon": 30.1157
    },
    "averageSpeedKmPerHour": 67.64780882899367,
    "telephone": "+9491650642701"
  },
  {
    "id": 27,
    "name": "Helmer Bailey",
    "currentLocation": {
      "lat": 51.6879,
      "lon": 27.7447
    },
    "averageSpeedKmPerHour": 77.89886203761691,
    "telephone": "+3246918706127"
  },
  {
    "id": 28,
    "name": "Osvaldo O'Hara",
    "currentLocation": {
      "lat": 48.5993,
      "lon": 16.273
    },
    "averageSpeedKmPerHour": 89.84825904422785,
    "telephone": "+3469194314849"
  },
  {
    "id": 29,
    "name": "Isai Zulauf",
    "currentLocation": {
      "lat": 49.0771,
      "lon": 27.9208
    },
    "averageSpeedKmPerHour": 82.78542867495696,
    "telephone": "+0285933867830"
  },
  {
    "id": 30,
    "name": "Tania Marvin",
    "currentLocation": {
      "lat": 49.4518,
      "lon": 10.7052
    },
    "averageSpeedKmPerHour": 75.13345149305326,
    "telephone": "+5783164023234"
  },
  {
    "id": 31,
    "name": "Jadon Huels",
    "currentLocation": {
      "lat": 50.4632,
      "lon": 19.0522
    },
    "averageSpeedKmPerHour": 86.17286542579873,
    "telephone": "+2498950271467"
  },
  {
    "id": 32,
    "name": "Arch Douglas",
    "currentLocation": {
      "lat": 48.6783,
      "lon": 31.2661
    },
    "averageSpeedKmPerHour": 77.22756315206271,
    "telephone": "+7063645326849"
  },
  {
    "id": 33,
    "name": "Earnestine Hauck",
    "currentLocation": {
      "lat": 46.9503,
      "lon": 26.329
    },
    "averageSpeedKmPerHour": 70.70605906272885,
    "telephone": "+3854449590736"
  },
  {
    "id": 34,
    "name": "Barrett Collins",
    "currentLocation": {
      "lat": 48.8765,
      "lon": 28.0336
    },
    "averageSpeedKmPerHour": 63.43303024403528,
    "telephone": "+3848570736971"
  },
  {
    "id": 35,
    "name": "Sigrid West",
    "currentLocation": {
      "lat": 49.9369,
      "lon": 16.4242
    },
    "averageSpeedKmPerHour": 64.6405519759802,
    "telephone": "+7987463341829"
  },
  {
    "id": 36,
    "name": "Luciano Jacobs",
    "currentLocation": {
      "lat": 49.9172,
      "lon": 13.9954
    },
    "averageSpeedKmPerHour": 65.827346007479,
    "telephone": "+9398578162674"
  },
  {
    "id": 37,
    "name": "Norris Kilback",
    "currentLocation": {
      "lat": 49.0031,
      "lon": 28.5003
    },
    "averageSpeedKmPerHour": 70.58110820706489,
    "telephone": "+1441170495910"
  },
  {
    "id": 38,
    "name": "Lilla Schiller",
    "currentLocation": {
      "lat": 53.0065,
      "lon": 12.607
    },
    "averageSpeedKmPerHour": 87.24951808527601,
    "telephone": "+7992434662767"
  },
  {
    "id": 39,
    "name": "Lon White",
    "currentLocation": {
      "lat": 46.3756,
      "lon": 20.2038
    },
    "averageSpeedKmPerHour": 79.41490206002078,
    "telephone": "+3919688441789"
  },
  {
    "id": 40,
    "name": "Hilda Dickinson",
    "currentLocation": {
      "lat": 51.5257,
      "lon": 8.411
    },
    "averageSpeedKmPerHour": 70.01966749322867,
    "telephone": "+3677778833525"
  },
  {
    "id": 41,
    "name": "Justen Daugherty",
    "currentLocation": {
      "lat": 46.9036,
      "lon": 12.653
    },
    "averageSpeedKmPerHour": 61.46198625211366,
    "telephone": "+5606903079058"
  },
  {
    "id": 42,
    "name": "Marisa Becker",
    "currentLocation": {
      "lat": 47.9357,
      "lon": 10.7722
    },
    "averageSpeedKmPerHour": 67.02572959531535,
    "telephone": "+9557564200154"
  },
  {
    "id": 43,
    "name": "Torrance Lueilwitz",
    "currentLocation": {
      "lat": 48.0574,
      "lon": 11.0847
    },
    "averageSpeedKmPerHour": 78.92946691264055,
    "telephone": "+4475160809109"
  },
  {
    "id": 44,
    "name": "Jake Kling",
    "currentLocation": {
      "lat": 49.2484,
      "lon": 31.7383
    },
    "averageSpeedKmPerHour": 77.75698204508633,
    "telephone": "+0256591084207"
  },
  {
    "id": 45,
    "name": "Alvah Rohan",
    "currentLocation": {
      "lat": 51.7663,
      "lon": 28.846
    },
    "averageSpeedKmPerHour": 76.23576785233526,
    "telephone": "+4628479249369"
  },
  {
    "id": 46,
    "name": "Andreanne McLaughlin",
    "currentLocation": {
      "lat": 48.6819,
      "lon": 8.4798
    },
    "averageSpeedKmPerHour": 84.9577681620692,
    "telephone": "+9791984815636"
  },
  {
    "id": 47,
    "name": "Violet Kshlerin",
    "currentLocation": {
      "lat": 53.2308,
      "lon": 17.9666
    },
    "averageSpeedKmPerHour": 85.521581876932,
    "telephone": "+3475922381700"
  },
  {
    "id": 48,
    "name": "Rick Berge",
    "currentLocation": {
      "lat": 48.9005,
      "lon": 15.7083
    },
    "averageSpeedKmPerHour": 89.75090482642325,
    "telephone": "+9628393297347"
  },
  {
    "id": 49,
    "name": "Lorenza Goldner",
    "currentLocation": {
      "lat": 52.8993,
      "lon": 29.4039
    },
    "averageSpeedKmPerHour": 87.01165351656329,
    "telephone": "+1602089636993"
  },
  {
    "id": 50,
    "name": "Verlie Willms",
    "currentLocation": {
      "lat": 52.7006,
      "lon": 11.3523
    },
    "averageSpeedKmPerHour": 80.78568459017437,
    "telephone": "+1604554389427"
  },
  {
    "id": 51,
    "name": "Keegan Champlin",
    "currentLocation": {
      "lat": 52.6951,
      "lon": 11.6433
    },
    "averageSpeedKmPerHour": 85.23487151316397,
    "telephone": "+6527021704351"
  },
  {
    "id": 52,
    "name": "Roger Harris",
    "currentLocation": {
      "lat": 48.6872,
      "lon": 19.9506
    },
    "averageSpeedKmPerHour": 81.02866828633839,
    "telephone": "+6231167971538"
  },
  {
    "id": 53,
    "name": "Elna Parisian",
    "currentLocation": {
      "lat": 51.7638,
      "lon": 24.0598
    },
    "averageSpeedKmPerHour": 86.84452952642337,
    "telephone": "+9217837196088"
  },
  {
    "id": 54,
    "name": "Anahi Runte",
    "currentLocation": {
      "lat": 48.0396,
      "lon": 20.3803
    },
    "averageSpeedKmPerHour": 73.43366912690426,
    "telephone": "+8326628611500"
  },
  {
    "id": 55,
    "name": "Brandyn Predovic",
    "currentLocation": {
      "lat": 53.1898,
      "lon": 16.7048
    },
    "averageSpeedKmPerHour": 84.35821775934049,
    "telephone": "+7134821138956"
  },
  {
    "id": 56,
    "name": "Violet Nitzsche",
    "currentLocation": {
      "lat": 49.8292,
      "lon": 31.4021
    },
    "averageSpeedKmPerHour": 83.23738389464265,
    "telephone": "+5070950198299"
  },
  {
    "id": 57,
    "name": "Mortimer Schumm",
    "currentLocation": {
      "lat": 49.2682,
      "lon": 15.8966
    },
    "averageSpeedKmPerHour": 78.14356175149632,
    "telephone": "+4731931466374"
  },
  {
    "id": 58,
    "name": "Shaun Mayert",
    "currentLocation": {
      "lat": 50.5562,
      "lon": 26.0773
    },
    "averageSpeedKmPerHour": 64.8059015014266,
    "telephone": "+7500581728128"
  },
  {
    "id": 59,
    "name": "Cristal Sauer",
    "currentLocation": {
      "lat": 48.6233,
      "lon": 19.3587
    },
    "averageSpeedKmPerHour": 68.96177887439204,
    "telephone": "+2690684037964"
  },
  {
    "id": 60,
    "name": "Imogene Gorczany",
    "currentLocation": {
      "lat": 48.3197,
      "lon": 16.4851
    },
    "averageSpeedKmPerHour": 73.77614402621495,
    "telephone": "+0705711193388"
  },
  {
    "id": 61,
    "name": "Lila Jacobi",
    "currentLocation": {
      "lat": 48.6587,
      "lon": 9.7843
    },
    "averageSpeedKmPerHour": 80.0802847371877,
    "telephone": "+5512541450616"
  },
  {
    "id": 62,
    "name": "Sage Conroy",
    "currentLocation": {
      "lat": 47.0346,
      "lon": 13.5577
    },
    "averageSpeedKmPerHour": 71.30356816522632,
    "telephone": "+0712549748092"
  },
  {
    "id": 63,
    "name": "Maxwell Walsh",
    "currentLocation": {
      "lat": 47.5359,
      "lon": 26.6102
    },
    "averageSpeedKmPerHour": 62.25895587931597,
    "telephone": "+9682259493716"
  },
  {
    "id": 64,
    "name": "Oran Mohr",
    "currentLocation": {
      "lat": 47.7652,
      "lon": 12.2026
    },
    "averageSpeedKmPerHour": 70.20871605852085,
    "telephone": "+4983040929104"
  },
  {
    "id": 65,
    "name": "Aylin Hessel",
    "currentLocation": {
      "lat": 46.8608,
      "lon": 23.9893
    },
    "averageSpeedKmPerHour": 61.828198427679304,
    "telephone": "+1027829319055"
  },
  {
    "id": 66,
    "name": "Roberta Corwin",
    "currentLocation": {
      "lat": 49.8998,
      "lon": 15.4916
    },
    "averageSpeedKmPerHour": 80.58925854798477,
    "telephone": "+3361043075227"
  },
  {
    "id": 67,
    "name": "Sim Gleason",
    "currentLocation": {
      "lat": 51.0129,
      "lon": 7.6647
    },
    "averageSpeedKmPerHour": 80.2437259525712,
    "telephone": "+9033213030788"
  },
  {
    "id": 68,
    "name": "Derek Stark",
    "currentLocation": {
      "lat": 50.2573,
      "lon": 28.5267
    },
    "averageSpeedKmPerHour": 62.6888540479788,
    "telephone": "+3024179882579"
  },
  {
    "id": 69,
    "name": "Savannah Quigley",
    "currentLocation": {
      "lat": 49.5439,
      "lon": 16.7461
    },
    "averageSpeedKmPerHour": 89.95877005978278,
    "telephone": "+4246206736655"
  },
  {
    "id": 70,
    "name": "Maria Lindgren",
    "currentLocation": {
      "lat": 47.5373,
      "lon": 15.9306
    },
    "averageSpeedKmPerHour": 69.5283927410898,
    "telephone": "+4289028625974"
  },
  {
    "id": 71,
    "name": "Randall Jacobson",
    "currentLocation": {
      "lat": 48.0599,
      "lon": 9.3629
    },
    "averageSpeedKmPerHour": 79.57868828399396,
    "telephone": "+2790963607305"
  },
  {
    "id": 72,
    "name": "Annie Smith",
    "currentLocation": {
      "lat": 46.9692,
      "lon": 16.7774
    },
    "averageSpeedKmPerHour": 73.26586793314748,
    "telephone": "+2126189061257"
  },
  {
    "id": 73,
    "name": "Luz Schmitt",
    "currentLocation": {
      "lat": 50.8489,
      "lon": 11.7503
    },
    "averageSpeedKmPerHour": 79.97501666193108,
    "telephone": "+4177917753022"
  },
  {
    "id": 74,
    "name": "Jarrell Rath",
    "currentLocation": {
      "lat": 52.2383,
      "lon": 10.2611
    },
    "averageSpeedKmPerHour": 80.10408797471241,
    "telephone": "+9011883692646"
  },
  {
    "id": 75,
    "name": "Avery Weimann",
    "currentLocation": {
      "lat": 46.4133,
      "lon": 10.7179
    },
    "averageSpeedKmPerHour": 68.61874323960116,
    "telephone": "+5151487774995"
  },
  {
    "id": 76,
    "name": "Ross Gislason",
    "currentLocation": {
      "lat": 48.846,
      "lon": 20.6918
    },
    "averageSpeedKmPerHour": 86.34878758557704,
    "telephone": "+3119598088199"
  },
  {
    "id": 77,
    "name": "Margarete Olson",
    "currentLocation": {
      "lat": 53.4541,
      "lon": 19.4255
    },
    "averageSpeedKmPerHour": 82.09872037836593,
    "telephone": "+1708673603272"
  },
  {
    "id": 78,
    "name": "Mark Greenfelder",
    "currentLocation": {
      "lat": 51.3848,
      "lon": 14.0582
    },
    "averageSpeedKmPerHour": 82.79922945591318,
    "telephone": "+3897217544350"
  },
  {
    "id": 79,
    "name": "Freddie Dietrich",
    "currentLocation": {
      "lat": 49.2277,
      "lon": 31.381
    },
    "averageSpeedKmPerHour": 62.885829453522646,
    "telephone": "+6669858452118"
  },
  {
    "id": 80,
    "name": "Van Jaskolski",
    "currentLocation": {
      "lat": 49.9139,
      "lon": 5.8062
    },
    "averageSpeedKmPerHour": 70.79698749902873,
    "telephone": "+3078571441097"
  },
  {
    "id": 81,
    "name": "Bryana Konopelski",
    "currentLocation": {
      "lat": 46.5228,
      "lon": 31.6224
    },
    "averageSpeedKmPerHour": 88.33799853909545,
    "telephone": "+8175315752893"
  },
  {
    "id": 82,
    "name": "Okey Veum",
    "currentLocation": {
      "lat": 52.9914,
      "lon": 9.1357
    },
    "averageSpeedKmPerHour": 83.90628713114518,
    "telephone": "+2983011781894"
  },
  {
    "id": 83,
    "name": "Henri Kozey",
    "currentLocation": {
      "lat": 48.5223,
      "lon": 20.2705
    },
    "averageSpeedKmPerHour": 85.58191146165741,
    "telephone": "+5531121672418"
  },
  {
    "id": 84,
    "name": "Lurline Collier",
    "currentLocation": {
      "lat": 50.2678,
      "lon": 30.4033
    },
    "averageSpeedKmPerHour": 72.50570471840807,
    "telephone": "+5257491484082"
  },
  {
    "id": 85,
    "name": "Alta Boyle",
    "currentLocation": {
      "lat": 51.8919,
      "lon": 17.0789
    },
    "averageSpeedKmPerHour": 61.0030629177044,
    "telephone": "+8966640789676"
  },
  {
    "id": 86,
    "name": "Felicia Luettgen",
    "currentLocation": {
      "lat": 51.2198,
      "lon": 15.9462
    },
    "averageSpeedKmPerHour": 66.7731083364325,
    "telephone": "+0151552809699"
  },
  {
    "id": 87,
    "name": "Gay Schimmel",
    "currentLocation": {
      "lat": 50.0108,
      "lon": 24.7957
    },
    "averageSpeedKmPerHour": 84.79710418984766,
    "telephone": "+6408418114074"
  },
  {
    "id": 88,
    "name": "Fidel Ratke",
    "currentLocation": {
      "lat": 53.078,
      "lon": 21.1574
    },
    "averageSpeedKmPerHour": 81.33668074759686,
    "telephone": "+1701066726490"
  },
  {
    "id": 89,
    "name": "Lily Smitham",
    "currentLocation": {
      "lat": 52.958,
      "lon": 6.6929
    },
    "averageSpeedKmPerHour": 60.705436666772094,
    "telephone": "+4348747687811"
  },
  {
    "id": 90,
    "name": "Ryleigh Keebler",
    "currentLocation": {
      "lat": 51.1954,
      "lon": 18.3444
    },
    "averageSpeedKmPerHour": 66.78132368887718,
    "telephone": "+9883264712867"
  },
  {
    "id": 91,
    "name": "Rossie Kuhn",
    "currentLocation": {
      "lat": 52.5425,
      "lon": 20.3722
    },
    "averageSpeedKmPerHour": 78.894276454242,
    "telephone": "+9929060308092"
  },
  {
    "id": 92,
    "name": "Simone Krajcik",
    "currentLocation": {
      "lat": 49.227,
      "lon": 27.1953
    },
    "averageSpeedKmPerHour": 84.69967707235644,
    "telephone": "+2009996843106"
  },
  {
    "id": 93,
    "name": "Jackeline Rolfson",
    "currentLocation": {
      "lat": 50.0665,
      "lon": 20.4444
    },
    "averageSpeedKmPerHour": 82.22979714598779,
    "telephone": "+5255311736956"
  },
  {
    "id": 94,
    "name": "Josefina Flatley",
    "currentLocation": {
      "lat": 49.8714,
      "lon": 28.7038
    },
    "averageSpeedKmPerHour": 80.34156117879854,
    "telephone": "+2845872488208"
  },
  {
    "id": 95,
    "name": "Arely Hane",
    "currentLocation": {
      "lat": 52.5217,
      "lon": 29.0441
    },
    "averageSpeedKmPerHour": 74.3023732234021,
    "telephone": "+6762480018105"
  },
  {
    "id": 96,
    "name": "Haven Goodwin",
    "currentLocation": {
      "lat": 48.5868,
      "lon": 9.0132
    },
    "averageSpeedKmPerHour": 64.29674488304131,
    "telephone": "+3006494106513"
  },
  {
    "id": 97,
    "name": "Terrance Kautzer",
    "currentLocation": {
      "lat": 47.769,
      "lon": 14.4877
    },
    "averageSpeedKmPerHour": 81.95738517640726,
    "telephone": "+2828169960338"
  },
  {
    "id": 98,
    "name": "Willie Towne",
    "currentLocation": {
      "lat": 51.5951,
      "lon": 20.6939
    },
    "averageSpeedKmPerHour": 63.29547112696381,
    "telephone": "+9944921460246"
  },
  {
    "id": 99,
    "name": "Osborne Waelchi",
    "currentLocation": {
      "lat": 48.8622,
      "lon": 28.3243
    },
    "averageSpeedKmPerHour": 85.12695351386147,
    "telephone": "+9388094027081"
  },
  {
    "id": 100,
    "name": "Vivienne Zemlak",
    "currentLocation": {
      "lat": 50.36,
      "lon": 20.7004
    },
    "averageSpeedKmPerHour": 88.60022751359634,
    "telephone": "+1160894714696"
  },
  {
    "id": 101,
    "name": "Dangelo Fisher",
    "currentLocation": {
      "lat": 51.536,
      "lon": 18.8988
    },
    "averageSpeedKmPerHour": 67.39531200611019,
    "telephone": "+2147195626618"
  },
  {
    "id": 102,
    "name": "Hans Kohler",
    "currentLocation": {
      "lat": 48.338,
      "lon": 19.0711
    },
    "averageSpeedKmPerHour": 67.33634934146426,
    "telephone": "+9784485080010"
  },
  {
    "id": 103,
    "name": "Autumn Hessel",
    "currentLocation": {
      "lat": 47.0162,
      "lon": 31.3559
    },
    "averageSpeedKmPerHour": 72.43267686462768,
    "telephone": "+2818367001455"
  },
  {
    "id": 104,
    "name": "Adriel Daugherty",
    "currentLocation": {
      "lat": 53.5027,
      "lon": 29.8885
    },
    "averageSpeedKmPerHour": 77.23811666828303,
    "telephone": "+0716132182269"
  },
  {
    "id": 105,
    "name": "Kallie Schulist",
    "currentLocation": {
      "lat": 46.6644,
      "lon": 26.1596
    },
    "averageSpeedKmPerHour": 66.87691484985417,
    "telephone": "+8167488822657"
  },
  {
    "id": 106,
    "name": "Kaelyn Aufderhar",
    "currentLocation": {
      "lat": 51.1731,
      "lon": 15.6297
    },
    "averageSpeedKmPerHour": 81.29982272804843,
    "telephone": "+8785150690657"
  },
  {
    "id": 107,
    "name": "Terry Torphy",
    "currentLocation": {
      "lat": 50.6709,
      "lon": 18.1045
    },
    "averageSpeedKmPerHour": 75.28971094283297,
    "telephone": "+1455140617555"
  },
  {
    "id": 108,
    "name": "Adan MacGyver",
    "currentLocation": {
      "lat": 51.8343,
      "lon": 30.1423
    },
    "averageSpeedKmPerHour": 73.45078923026833,
    "telephone": "+9722242138804"
  },
  {
    "id": 109,
    "name": "Orrin Treutel",
    "currentLocation": {
      "lat": 46.9035,
      "lon": 14.6168
    },
    "averageSpeedKmPerHour": 74.37280132582381,
    "telephone": "+7386708823425"
  },
  {
    "id": 110,
    "name": "Ashlynn Lockman",
    "currentLocation": {
      "lat": 49.0617,
      "lon": 25.6462
    },
    "averageSpeedKmPerHour": 71.60084515730092,
    "telephone": "+0573700359931"
  },
  {
    "id": 111,
    "name": "Wilbert Lebsack",
    "currentLocation": {
      "lat": 47.2547,
      "lon": 15.1628
    },
    "averageSpeedKmPerHour": 84.76787493106721,
    "telephone": "+0188903003887"
  },
  {
    "id": 112,
    "name": "Cydney Paucek",
    "currentLocation": {
      "lat": 50.3155,
      "lon": 22.7146
    },
    "averageSpeedKmPerHour": 79.2301407512925,
    "telephone": "+6642201606094"
  },
  {
    "id": 113,
    "name": "Muhammad Emard",
    "currentLocation": {
      "lat": 49.524,
      "lon": 25.7626
    },
    "averageSpeedKmPerHour": 62.92378820053164,
    "telephone": "+4438152759055"
  },
  {
    "id": 114,
    "name": "Casandra DuBuque",
    "currentLocation": {
      "lat": 46.9452,
      "lon": 7.2103
    },
    "averageSpeedKmPerHour": 74.80062160625444,
    "telephone": "+3047787270920"
  },
  {
    "id": 115,
    "name": "Chauncey Zulauf",
    "currentLocation": {
      "lat": 49.9187,
      "lon": 14.328
    },
    "averageSpeedKmPerHour": 86.91008989400666,
    "telephone": "+1533823734068"
  },
  {
    "id": 116,
    "name": "Izabella Stracke",
    "currentLocation": {
      "lat": 51.0988,
      "lon": 9.9862
    },
    "averageSpeedKmPerHour": 74.75034320075989,
    "telephone": "+4242713256596"
  },
  {
    "id": 117,
    "name": "Samir Gleason",
    "currentLocation": {
      "lat": 51.9433,
      "lon": 29.1311
    },
    "averageSpeedKmPerHour": 79.80158754424818,
    "telephone": "+5643722567216"
  },
  {
    "id": 118,
    "name": "Richard Batz",
    "currentLocation": {
      "lat": 46.4444,
      "lon": 17.4498
    },
    "averageSpeedKmPerHour": 72.50308423659584,
    "telephone": "+9362856764857"
  },
  {
    "id": 119,
    "name": "Odessa Bergstrom",
    "currentLocation": {
      "lat": 50.2098,
      "lon": 21.5638
    },
    "averageSpeedKmPerHour": 83.37977179030591,
    "telephone": "+3322466953641"
  },
  {
    "id": 120,
    "name": "Walker O'Connell",
    "currentLocation": {
      "lat": 52.1876,
      "lon": 24.2396
    },
    "averageSpeedKmPerHour": 75.68226156130866,
    "telephone": "+0344500112786"
  },
  {
    "id": 121,
    "name": "Carmella Gaylord",
    "currentLocation": {
      "lat": 52.199,
      "lon": 26.3113
    },
    "averageSpeedKmPerHour": 79.10994844405491,
    "telephone": "+0064680727239"
  },
  {
    "id": 122,
    "name": "Josefina Cummerata",
    "currentLocation": {
      "lat": 52.2807,
      "lon": 7.72
    },
    "averageSpeedKmPerHour": 80.13419705996009,
    "telephone": "+9352893309654"
  },
  {
    "id": 123,
    "name": "Blaise Wehner",
    "currentLocation": {
      "lat": 51.7298,
      "lon": 27.2048
    },
    "averageSpeedKmPerHour": 68.70294306359996,
    "telephone": "+1456295488625"
  },
  {
    "id": 124,
    "name": "Telly Smith",
    "currentLocation": {
      "lat": 49.3711,
      "lon": 7.9214
    },
    "averageSpeedKmPerHour": 65.82616143250837,
    "telephone": "+3454941343541"
  },
  {
    "id": 125,
    "name": "Javon Hyatt",
    "currentLocation": {
      "lat": 52.9975,
      "lon": 12.5527
    },
    "averageSpeedKmPerHour": 63.36312676697917,
    "telephone": "+6712905504944"
  },
  {
    "id": 126,
    "name": "Cloyd Hodkiewicz",
    "currentLocation": {
      "lat": 51.7883,
      "lon": 15.073
    },
    "averageSpeedKmPerHour": 61.65371467030887,
    "telephone": "+9153044806647"
  },
  {
    "id": 127,
    "name": "Kitty Cruickshank",
    "currentLocation": {
      "lat": 50.4128,
      "lon": 6.0042
    },
    "averageSpeedKmPerHour": 64.13681815221688,
    "telephone": "+2391050609284"
  },
  {
    "id": 128,
    "name": "Sadie Ward",
    "currentLocation": {
      "lat": 53.3296,
      "lon": 31.7523
    },
    "averageSpeedKmPerHour": 63.97541008769453,
    "telephone": "+1058014598797"
  },
  {
    "id": 129,
    "name": "Clovis Kirlin",
    "currentLocation": {
      "lat": 47.2649,
      "lon": 8.489
    },
    "averageSpeedKmPerHour": 70.92429377198316,
    "telephone": "+5290409479864"
  },
  {
    "id": 130,
    "name": "Sibyl Reichel",
    "currentLocation": {
      "lat": 51.3119,
      "lon": 28.3642
    },
    "averageSpeedKmPerHour": 66.78830720331847,
    "telephone": "+7556615024811"
  },
  {
    "id": 131,
    "name": "Jeramie Bogan",
    "currentLocation": {
      "lat": 46.5402,
      "lon": 9.9751
    },
    "averageSpeedKmPerHour": 69.92224999462395,
    "telephone": "+3861274551672"
  },
  {
    "id": 132,
    "name": "Ryder Willms",
    "currentLocation": {
      "lat": 53.3804,
      "lon": 18.8905
    },
    "averageSpeedKmPerHour": 62.765065955957766,
    "telephone": "+5669010065257"
  },
  {
    "id": 133,
    "name": "Harold Torphy",
    "currentLocation": {
      "lat": 48.8245,
      "lon": 22.1499
    },
    "averageSpeedKmPerHour": 61.448558486553445,
    "telephone": "+8609160235900"
  },
  {
    "id": 134,
    "name": "Micah Collins",
    "currentLocation": {
      "lat": 52.3149,
      "lon": 23.9496
    },
    "averageSpeedKmPerHour": 83.30365728293746,
    "telephone": "+5575873861897"
  },
  {
    "id": 135,
    "name": "Camylle Robel",
    "currentLocation": {
      "lat": 52.153,
      "lon": 10.6494
    },
    "averageSpeedKmPerHour": 66.80717446706261,
    "telephone": "+8243080272770"
  },
  {
    "id": 136,
    "name": "Sienna Conroy",
    "currentLocation": {
      "lat": 46.4181,
      "lon": 24.7517
    },
    "averageSpeedKmPerHour": 80.9047662282704,
    "telephone": "+9075193045767"
  },
  {
    "id": 137,
    "name": "Maia Hills",
    "currentLocation": {
      "lat": 52.1995,
      "lon": 24.8124
    },
    "averageSpeedKmPerHour": 73.79400011736163,
    "telephone": "+0291072427233"
  },
  {
    "id": 138,
    "name": "Abdullah Zboncak",
    "currentLocation": {
      "lat": 53.1435,
      "lon": 14.9256
    },
    "averageSpeedKmPerHour": 81.83963116553252,
    "telephone": "+6497963413871"
  },
  {
    "id": 139,
    "name": "Diamond Batz",
    "currentLocation": {
      "lat": 49.8861,
      "lon": 23.3822
    },
    "averageSpeedKmPerHour": 88.99227340554134,
    "telephone": "+1242897429227"
  },
  {
    "id": 140,
    "name": "Trevor Dibbert",
    "currentLocation": {
      "lat": 52.0284,
      "lon": 6.0425
    },
    "averageSpeedKmPerHour": 62.84257769786844,
    "telephone": "+1652507341229"
  },
  {
    "id": 141,
    "name": "Jakob Von",
    "currentLocation": {
      "lat": 50.8091,
      "lon": 30.831
    },
    "averageSpeedKmPerHour": 85.919248564722,
    "telephone": "+7469500467989"
  },
  {
    "id": 142,
    "name": "Hershel Raynor",
    "currentLocation": {
      "lat": 46.5734,
      "lon": 9.5947
    },
    "averageSpeedKmPerHour": 80.49790771017724,
    "telephone": "+9606166485438"
  },
  {
    "id": 143,
    "name": "Jeanne Block",
    "currentLocation": {
      "lat": 48.7396,
      "lon": 16.551
    },
    "averageSpeedKmPerHour": 82.40151214790562,
    "telephone": "+9348889844214"
  },
  {
    "id": 144,
    "name": "Rosamond Mann",
    "currentLocation": {
      "lat": 47.7843,
      "lon": 17.2672
    },
    "averageSpeedKmPerHour": 74.84012759350492,
    "telephone": "+5189789149752"
  },
  {
    "id": 145,
    "name": "Louie Welch",
    "currentLocation": {
      "lat": 49.5542,
      "lon": 30.7353
    },
    "averageSpeedKmPerHour": 72.88707974058825,
    "telephone": "+5614015322254"
  },
  {
    "id": 146,
    "name": "Myrtle Kertzmann",
    "currentLocation": {
      "lat": 51.3476,
      "lon": 18.1767
    },
    "averageSpeedKmPerHour": 84.49194704622336,
    "telephone": "+8157724380685"
  },
  {
    "id": 147,
    "name": "Brycen Turner",
    "currentLocation": {
      "lat": 50.9193,
      "lon": 21.327
    },
    "averageSpeedKmPerHour": 80.1637353900461,
    "telephone": "+1215582348866"
  },
  {
    "id": 148,
    "name": "Alexandre Gerhold",
    "currentLocation": {
      "lat": 50.4673,
      "lon": 22.4322
    },
    "averageSpeedKmPerHour": 86.42230015608975,
    "telephone": "+7416162859522"
  },
  {
    "id": 149,
    "name": "Donato Tremblay",
    "currentLocation": {
      "lat": 46.948,
      "lon": 7.1503
    },
    "averageSpeedKmPerHour": 66.84034275656418,
    "telephone": "+3759467119370"
  },
  {
    "id": 150,
    "name": "Orrin Anderson",
    "currentLocation": {
      "lat": 50.5721,
      "lon": 28.3755
    },
    "averageSpeedKmPerHour": 74.09003247187763,
    "telephone": "+4162708028534"
  },
  {
    "id": 151,
    "name": "Fiona Macejkovic",
    "currentLocation": {
      "lat": 50.4028,
      "lon": 30.266
    },
    "averageSpeedKmPerHour": 76.2460927397924,
    "telephone": "+4925654605715"
  },
  {
    "id": 152,
    "name": "Mose Nicolas",
    "currentLocation": {
      "lat": 51.9319,
      "lon": 10.3013
    },
    "averageSpeedKmPerHour": 74.85677557553855,
    "telephone": "+0148233155661"
  },
  {
    "id": 153,
    "name": "Tiffany Bednar",
    "currentLocation": {
      "lat": 49.9637,
      "lon": 16.3166
    },
    "averageSpeedKmPerHour": 61.17164250839181,
    "telephone": "+9528113139498"
  },
  {
    "id": 154,
    "name": "Jayde Lemke",
    "currentLocation": {
      "lat": 51.8084,
      "lon": 24.6062
    },
    "averageSpeedKmPerHour": 69.62090901747172,
    "telephone": "+9550656044039"
  },
  {
    "id": 155,
    "name": "Marion Wuckert",
    "currentLocation": {
      "lat": 52.1708,
      "lon": 9.514
    },
    "averageSpeedKmPerHour": 81.60416325190715,
    "telephone": "+2162713800761"
  },
  {
    "id": 156,
    "name": "Morris Stiedemann",
    "currentLocation": {
      "lat": 47.0538,
      "lon": 22.2914
    },
    "averageSpeedKmPerHour": 75.66973484994143,
    "telephone": "+2578824216823"
  },
  {
    "id": 157,
    "name": "Karina Schinner",
    "currentLocation": {
      "lat": 48.8648,
      "lon": 23.1653
    },
    "averageSpeedKmPerHour": 65.5409612875779,
    "telephone": "+9411306868813"
  },
  {
    "id": 158,
    "name": "Clementine Torp",
    "currentLocation": {
      "lat": 51.9947,
      "lon": 7.8693
    },
    "averageSpeedKmPerHour": 83.6013450232093,
    "telephone": "+0453208797472"
  },
  {
    "id": 159,
    "name": "Luciano Boyer",
    "currentLocation": {
      "lat": 49.809,
      "lon": 16.2
    },
    "averageSpeedKmPerHour": 67.8932713735544,
    "telephone": "+7475315547382"
  },
  {
    "id": 160,
    "name": "Justyn Mante",
    "currentLocation": {
      "lat": 48.4223,
      "lon": 27.281
    },
    "averageSpeedKmPerHour": 81.54076066702407,
    "telephone": "+2919520268353"
  },
  {
    "id": 161,
    "name": "Norwood Blanda",
    "currentLocation": {
      "lat": 52.011,
      "lon": 5.6752
    },
    "averageSpeedKmPerHour": 71.67045089112045,
    "telephone": "+4915386505891"
  },
  {
    "id": 162,
    "name": "Eryn Bradtke",
    "currentLocation": {
      "lat": 51.7689,
      "lon": 17.2334
    },
    "averageSpeedKmPerHour": 67.4770829204215,
    "telephone": "+9020492512023"
  },
  {
    "id": 163,
    "name": "Lizzie Veum",
    "currentLocation": {
      "lat": 52.4324,
      "lon": 18.3217
    },
    "averageSpeedKmPerHour": 83.85936710646077,
    "telephone": "+9738252070472"
  },
  {
    "id": 164,
    "name": "Lolita Von",
    "currentLocation": {
      "lat": 46.9906,
      "lon": 29.9953
    },
    "averageSpeedKmPerHour": 74.87427428444887,
    "telephone": "+5543241023323"
  },
  {
    "id": 165,
    "name": "Danial Welch",
    "currentLocation": {
      "lat": 46.7904,
      "lon": 13.0125
    },
    "averageSpeedKmPerHour": 76.37634245851065,
    "telephone": "+9309317096863"
  },
  {
    "id": 166,
    "name": "Bessie Renner",
    "currentLocation": {
      "lat": 46.7835,
      "lon": 29.4789
    },
    "averageSpeedKmPerHour": 69.50145950932622,
    "telephone": "+4756736929461"
  },
  {
    "id": 167,
    "name": "Brigitte Schoen",
    "currentLocation": {
      "lat": 51.0024,
      "lon": 25.2979
    },
    "averageSpeedKmPerHour": 69.7836239519964,
    "telephone": "+4364257382149"
  },
  {
    "id": 168,
    "name": "Orval Schroeder",
    "currentLocation": {
      "lat": 47.587,
      "lon": 9.7252
    },
    "averageSpeedKmPerHour": 70.43175586625092,
    "telephone": "+8276628082932"
  },
  {
    "id": 169,
    "name": "Modesta Crooks",
    "currentLocation": {
      "lat": 51.9912,
      "lon": 20.4287
    },
    "averageSpeedKmPerHour": 81.46435167620594,
    "telephone": "+7141229731148"
  },
  {
    "id": 170,
    "name": "Nola Ankunding",
    "currentLocation": {
      "lat": 46.6515,
      "lon": 10.6225
    },
    "averageSpeedKmPerHour": 63.52705814236907,
    "telephone": "+6626262036268"
  },
  {
    "id": 171,
    "name": "Rafaela Dietrich",
    "currentLocation": {
      "lat": 48.4036,
      "lon": 11.2341
    },
    "averageSpeedKmPerHour": 89.85536221355858,
    "telephone": "+1722408609759"
  },
  {
    "id": 172,
    "name": "Hayden Hodkiewicz",
    "currentLocation": {
      "lat": 53.3969,
      "lon": 23.7518
    },
    "averageSpeedKmPerHour": 88.78825694492176,
    "telephone": "+5541559100637"
  },
  {
    "id": 173,
    "name": "Dillon Strosin",
    "currentLocation": {
      "lat": 53.3211,
      "lon": 12.5458
    },
    "averageSpeedKmPerHour": 60.33628477290785,
    "telephone": "+4808180339511"
  },
  {
    "id": 174,
    "name": "Keenan Nitzsche",
    "currentLocation": {
      "lat": 46.7446,
      "lon": 7.6067
    },
    "averageSpeedKmPerHour": 72.1747597386691,
    "telephone": "+9492060182400"
  },
  {
    "id": 175,
    "name": "Tobin Macejkovic",
    "currentLocation": {
      "lat": 51.6132,
      "lon": 6.6678
    },
    "averageSpeedKmPerHour": 61.8508759179872,
    "telephone": "+0960145607815"
  },
  {
    "id": 176,
    "name": "Meredith Jaskolski",
    "currentLocation": {
      "lat": 53.4794,
      "lon": 17.96
    },
    "averageSpeedKmPerHour": 79.52656676843087,
    "telephone": "+6886841587027"
  },
  {
    "id": 177,
    "name": "Cedrick Nienow",
    "currentLocation": {
      "lat": 46.945,
      "lon": 31.4671
    },
    "averageSpeedKmPerHour": 79.71852423379612,
    "telephone": "+6365839172017"
  },
  {
    "id": 178,
    "name": "Junius Olson",
    "currentLocation": {
      "lat": 51.1106,
      "lon": 21.8228
    },
    "averageSpeedKmPerHour": 68.44352702049127,
    "telephone": "+3317263794501"
  },
  {
    "id": 179,
    "name": "Rudolph Johns",
    "currentLocation": {
      "lat": 52.6345,
      "lon": 12.3988
    },
    "averageSpeedKmPerHour": 75.25320548199001,
    "telephone": "+7796056035574"
  },
  {
    "id": 180,
    "name": "Alf Labadie",
    "currentLocation": {
      "lat": 51.848,
      "lon": 21.7778
    },
    "averageSpeedKmPerHour": 66.29982590534848,
    "telephone": "+5627938809101"
  },
  {
    "id": 181,
    "name": "Arnoldo Durgan",
    "currentLocation": {
      "lat": 50.0979,
      "lon": 5.5743
    },
    "averageSpeedKmPerHour": 61.86761755521069,
    "telephone": "+9422722134305"
  },
  {
    "id": 182,
    "name": "Brent Corwin",
    "currentLocation": {
      "lat": 48.2878,
      "lon": 31.4203
    },
    "averageSpeedKmPerHour": 82.81000961364975,
    "telephone": "+3347755463043"
  },
  {
    "id": 183,
    "name": "Kara Streich",
    "currentLocation": {
      "lat": 48.4512,
      "lon": 9.1446
    },
    "averageSpeedKmPerHour": 64.93320430612127,
    "telephone": "+5879546109499"
  },
  {
    "id": 184,
    "name": "Reina Watsica",
    "currentLocation": {
      "lat": 49.7817,
      "lon": 29.6407
    },
    "averageSpeedKmPerHour": 75.02064016506993,
    "telephone": "+5172346052482"
  },
  {
    "id": 185,
    "name": "Orville Windler",
    "currentLocation": {
      "lat": 50.7487,
      "lon": 14.3079
    },
    "averageSpeedKmPerHour": 83.89013665603802,
    "telephone": "+8087070421163"
  },
  {
    "id": 186,
    "name": "Jerrell Boyer",
    "currentLocation": {
      "lat": 47.4874,
      "lon": 19.7848
    },
    "averageSpeedKmPerHour": 70.661895513189,
    "telephone": "+0528518384286"
  },
  {
    "id": 187,
    "name": "Jennings Kihn",
    "currentLocation": {
      "lat": 47.4776,
      "lon": 12.0225
    },
    "averageSpeedKmPerHour": 89.56912074413482,
    "telephone": "+5169027756968"
  },
  {
    "id": 188,
    "name": "Annamarie Russel",
    "currentLocation": {
      "lat": 50.1827,
      "lon": 25.6092
    },
    "averageSpeedKmPerHour": 60.869692439579836,
    "telephone": "+0947343253542"
  },
  {
    "id": 189,
    "name": "Llewellyn Herman",
    "currentLocation": {
      "lat": 50.7696,
      "lon": 27.1606
    },
    "averageSpeedKmPerHour": 82.1945188338776,
    "telephone": "+7663792357331"
  },
  {
    "id": 190,
    "name": "Aurelie Murazik",
    "currentLocation": {
      "lat": 47.6985,
      "lon": 30.0016
    },
    "averageSpeedKmPerHour": 81.03310359812943,
    "telephone": "+3624406802663"
  },
  {
    "id": 191,
    "name": "Raoul Heathcote",
    "currentLocation": {
      "lat": 52.0804,
      "lon": 9.1517
    },
    "averageSpeedKmPerHour": 61.45839217723315,
    "telephone": "+7901070400162"
  },
  {
    "id": 192,
    "name": "Marge Dietrich",
    "currentLocation": {
      "lat": 49.5211,
      "lon": 23.3024
    },
    "averageSpeedKmPerHour": 84.44374391343494,
    "telephone": "+3219498980605"
  },
  {
    "id": 193,
    "name": "Millie Homenick",
    "currentLocation": {
      "lat": 53.2947,
      "lon": 7.2902
    },
    "averageSpeedKmPerHour": 66.70246698229637,
    "telephone": "+4223289869228"
  },
  {
    "id": 194,
    "name": "Iliana Kuhlman",
    "currentLocation": {
      "lat": 48.2389,
      "lon": 9.2487
    },
    "averageSpeedKmPerHour": 63.31405863923586,
    "telephone": "+1379492743724"
  },
  {
    "id": 195,
    "name": "Etha Grant",
    "currentLocation": {
      "lat": 47.7982,
      "lon": 12.1154
    },
    "averageSpeedKmPerHour": 82.08826874908254,
    "telephone": "+0789650723256"
  },
  {
    "id": 196,
    "name": "Angelita Spinka",
    "currentLocation": {
      "lat": 46.4849,
      "lon": 29.2435
    },
    "averageSpeedKmPerHour": 84.42151107412045,
    "telephone": "+3799189920365"
  },
  {
    "id": 197,
    "name": "Percival Gibson",
    "currentLocation": {
      "lat": 49.866,
      "lon": 27.8141
    },
    "averageSpeedKmPerHour": 86.1143613998814,
    "telephone": "+1818945075227"
  },
  {
    "id": 198,
    "name": "Carolanne McCullough",
    "currentLocation": {
      "lat": 51.5697,
      "lon": 8.847
    },
    "averageSpeedKmPerHour": 71.1905419332573,
    "telephone": "+3513842725739"
  },
  {
    "id": 199,
    "name": "Kathlyn Kulas",
    "currentLocation": {
      "lat": 49.0911,
      "lon": 28.6259
    },
    "averageSpeedKmPerHour": 61.80040797623635,
    "telephone": "+4637465269904"
  },
  {
    "id": 200,
    "name": "Lorenza Williamson",
    "currentLocation": {
      "lat": 52.0748,
      "lon": 20.4603
    },
    "averageSpeedKmPerHour": 89.15468809542409,
    "telephone": "+1280052325133"
  },
  {
    "id": 201,
    "name": "Gus Kshlerin",
    "currentLocation": {
      "lat": 50.6432,
      "lon": 12.7039
    },
    "averageSpeedKmPerHour": 72.72957303380576,
    "telephone": "+8209470216706"
  },
  {
    "id": 202,
    "name": "Bernadine Spinka",
    "currentLocation": {
      "lat": 47.274,
      "lon": 5.5286
    },
    "averageSpeedKmPerHour": 70.3235750148384,
    "telephone": "+8318927848788"
  },
  {
    "id": 203,
    "name": "Mariam Muller",
    "currentLocation": {
      "lat": 53.0212,
      "lon": 10.7708
    },
    "averageSpeedKmPerHour": 71.46318316570776,
    "telephone": "+4121951657511"
  },
  {
    "id": 204,
    "name": "Clint Franecki",
    "currentLocation": {
      "lat": 48.6913,
      "lon": 25.4097
    },
    "averageSpeedKmPerHour": 76.20328081144237,
    "telephone": "+8759951492706"
  },
  {
    "id": 205,
    "name": "Delfina Smith",
    "currentLocation": {
      "lat": 52.8614,
      "lon": 22.0568
    },
    "averageSpeedKmPerHour": 75.27245669311475,
    "telephone": "+6587767551614"
  },
  {
    "id": 206,
    "name": "Matilde Effertz",
    "currentLocation": {
      "lat": 49.1053,
      "lon": 17.3862
    },
    "averageSpeedKmPerHour": 63.696338268204975,
    "telephone": "+4034793208643"
  },
  {
    "id": 207,
    "name": "Chandler Roberts",
    "currentLocation": {
      "lat": 49.3223,
      "lon": 27.2387
    },
    "averageSpeedKmPerHour": 79.53490459479065,
    "telephone": "+9536924890678"
  },
  {
    "id": 208,
    "name": "Agustin Feest",
    "currentLocation": {
      "lat": 52.0478,
      "lon": 6.7872
    },
    "averageSpeedKmPerHour": 83.83513371965421,
    "telephone": "+9965027202613"
  },
  {
    "id": 209,
    "name": "Addison Monahan",
    "currentLocation": {
      "lat": 53.4468,
      "lon": 19.053
    },
    "averageSpeedKmPerHour": 68.33104908589577,
    "telephone": "+0764528605796"
  },
  {
    "id": 210,
    "name": "Tia Sipes",
    "currentLocation": {
      "lat": 46.5027,
      "lon": 23.9251
    },
    "averageSpeedKmPerHour": 79.7395818495524,
    "telephone": "+3772118427385"
  },
  {
    "id": 211,
    "name": "Zachariah Bechtelar",
    "currentLocation": {
      "lat": 47.9656,
      "lon": 20.4897
    },
    "averageSpeedKmPerHour": 80.74541462187622,
    "telephone": "+2994270304335"
  },
  {
    "id": 212,
    "name": "Francesca Hahn",
    "currentLocation": {
      "lat": 49.2791,
      "lon": 21.108
    },
    "averageSpeedKmPerHour": 72.59280483258192,
    "telephone": "+0947039288508"
  },
  {
    "id": 213,
    "name": "Kristina Fritsch",
    "currentLocation": {
      "lat": 51.9168,
      "lon": 6.3712
    },
    "averageSpeedKmPerHour": 81.22071660222124,
    "telephone": "+9341763428520"
  },
  {
    "id": 214,
    "name": "Kevon Lueilwitz",
    "currentLocation": {
      "lat": 53.4832,
      "lon": 26.1493
    },
    "averageSpeedKmPerHour": 86.89581239435569,
    "telephone": "+8696912644989"
  },
  {
    "id": 215,
    "name": "Cassidy Schuster",
    "currentLocation": {
      "lat": 46.8713,
      "lon": 23.3458
    },
    "averageSpeedKmPerHour": 88.82850641279737,
    "telephone": "+5003975346840"
  },
  {
    "id": 216,
    "name": "Milton Wintheiser",
    "currentLocation": {
      "lat": 52.5795,
      "lon": 29.0042
    },
    "averageSpeedKmPerHour": 76.33829926484167,
    "telephone": "+0454411816911"
  },
  {
    "id": 217,
    "name": "Ezequiel Stanton",
    "currentLocation": {
      "lat": 47.1572,
      "lon": 30.6917
    },
    "averageSpeedKmPerHour": 81.74108065098011,
    "telephone": "+2776945960775"
  },
  {
    "id": 218,
    "name": "Nya Kerluke",
    "currentLocation": {
      "lat": 48.0063,
      "lon": 18.9366
    },
    "averageSpeedKmPerHour": 68.1363325125647,
    "telephone": "+5917983968875"
  },
  {
    "id": 219,
    "name": "Ralph Jast",
    "currentLocation": {
      "lat": 50.4014,
      "lon": 9.44
    },
    "averageSpeedKmPerHour": 69.68871717718592,
    "telephone": "+4373654397315"
  },
  {
    "id": 220,
    "name": "Dejuan Osinski",
    "currentLocation": {
      "lat": 48.2725,
      "lon": 31.6911
    },
    "averageSpeedKmPerHour": 74.19676577996155,
    "telephone": "+4523310198916"
  },
  {
    "id": 221,
    "name": "Dimitri Kozey",
    "currentLocation": {
      "lat": 47.6701,
      "lon": 19.3882
    },
    "averageSpeedKmPerHour": 87.25104604397626,
    "telephone": "+7370885894296"
  },
  {
    "id": 222,
    "name": "Kennith Harvey",
    "currentLocation": {
      "lat": 46.8216,
      "lon": 16.4612
    },
    "averageSpeedKmPerHour": 65.85467085735763,
    "telephone": "+5019888727002"
  },
  {
    "id": 223,
    "name": "Tyshawn Hills",
    "currentLocation": {
      "lat": 50.5376,
      "lon": 27.7561
    },
    "averageSpeedKmPerHour": 68.8812324038571,
    "telephone": "+6497917775423"
  },
  {
    "id": 224,
    "name": "Delores Powlowski",
    "currentLocation": {
      "lat": 51.9048,
      "lon": 11.6589
    },
    "averageSpeedKmPerHour": 79.57929562569521,
    "telephone": "+2029801532164"
  },
  {
    "id": 225,
    "name": "Princess Shields",
    "currentLocation": {
      "lat": 47.4003,
      "lon": 11.1089
    },
    "averageSpeedKmPerHour": 84.2444984924998,
    "telephone": "+0333542252566"
  },
  {
    "id": 226,
    "name": "Odessa Friesen",
    "currentLocation": {
      "lat": 47.198,
      "lon": 28.8165
    },
    "averageSpeedKmPerHour": 85.25998858480483,
    "telephone": "+6948625818291"
  },
  {
    "id": 227,
    "name": "Nathan Lang",
    "currentLocation": {
      "lat": 50.7088,
      "lon": 12.2705
    },
    "averageSpeedKmPerHour": 73.06067512527989,
    "telephone": "+7241845192733"
  },
  {
    "id": 228,
    "name": "Neoma Ebert",
    "currentLocation": {
      "lat": 50.3278,
      "lon": 23.5663
    },
    "averageSpeedKmPerHour": 87.05503595240641,
    "telephone": "+7003982446559"
  },
  {
    "id": 229,
    "name": "Marlee Cartwright",
    "currentLocation": {
      "lat": 53.5185,
      "lon": 15.9518
    },
    "averageSpeedKmPerHour": 65.9211721341516,
    "telephone": "+9649805262423"
  },
  {
    "id": 230,
    "name": "Seth Greenholt",
    "currentLocation": {
      "lat": 48.0895,
      "lon": 8.1448
    },
    "averageSpeedKmPerHour": 82.90614756546597,
    "telephone": "+7658795260068"
  },
  {
    "id": 231,
    "name": "Trey McClure",
    "currentLocation": {
      "lat": 47.934,
      "lon": 14.4797
    },
    "averageSpeedKmPerHour": 85.89514795276482,
    "telephone": "+5229617606036"
  },
  {
    "id": 232,
    "name": "Kaitlyn Roberts",
    "currentLocation": {
      "lat": 50.4591,
      "lon": 20.7892
    },
    "averageSpeedKmPerHour": 69.3004857863806,
    "telephone": "+6469727437821"
  },
  {
    "id": 233,
    "name": "Marianne West",
    "currentLocation": {
      "lat": 53.319,
      "lon": 6.2455
    },
    "averageSpeedKmPerHour": 79.38707905061705,
    "telephone": "+0448842564735"
  },
  {
    "id": 234,
    "name": "Adelbert Hessel",
    "currentLocation": {
      "lat": 53.3024,
      "lon": 9.7518
    },
    "averageSpeedKmPerHour": 64.9147752452627,
    "telephone": "+8550156711279"
  },
  {
    "id": 235,
    "name": "Elvera Upton",
    "currentLocation": {
      "lat": 53.0127,
      "lon": 29.41
    },
    "averageSpeedKmPerHour": 86.36190685101386,
    "telephone": "+2930470994599"
  },
  {
    "id": 236,
    "name": "Kole Mitchell",
    "currentLocation": {
      "lat": 48.5722,
      "lon": 26.2433
    },
    "averageSpeedKmPerHour": 74.45109378076492,
    "telephone": "+7222199413002"
  },
  {
    "id": 237,
    "name": "Wilbert Volkman",
    "currentLocation": {
      "lat": 46.3687,
      "lon": 12.1259
    },
    "averageSpeedKmPerHour": 62.63231475590588,
    "telephone": "+6190057111381"
  },
  {
    "id": 238,
    "name": "Eva Langworth",
    "currentLocation": {
      "lat": 47.1392,
      "lon": 30.4218
    },
    "averageSpeedKmPerHour": 82.98371551125535,
    "telephone": "+5888238655445"
  },
  {
    "id": 239,
    "name": "Kaycee Hudson",
    "currentLocation": {
      "lat": 52.7751,
      "lon": 30.194
    },
    "averageSpeedKmPerHour": 74.2259347513614,
    "telephone": "+2021432751554"
  },
  {
    "id": 240,
    "name": "Darron Torp",
    "currentLocation": {
      "lat": 48.8451,
      "lon": 20.3276
    },
    "averageSpeedKmPerHour": 69.80134224846738,
    "telephone": "+3922870898879"
  },
  {
    "id": 241,
    "name": "Fredrick Cartwright",
    "currentLocation": {
      "lat": 50.5059,
      "lon": 30.2851
    },
    "averageSpeedKmPerHour": 70.03741442291435,
    "telephone": "+0333945461149"
  },
  {
    "id": 242,
    "name": "Alexys Schowalter",
    "currentLocation": {
      "lat": 52.0624,
      "lon": 22.4632
    },
    "averageSpeedKmPerHour": 79.73135476500035,
    "telephone": "+4891941514589"
  },
  {
    "id": 243,
    "name": "Sylvan Hand",
    "currentLocation": {
      "lat": 51.9928,
      "lon": 22.148
    },
    "averageSpeedKmPerHour": 63.92434309028277,
    "telephone": "+4905372649374"
  },
  {
    "id": 244,
    "name": "Johnpaul Lakin",
    "currentLocation": {
      "lat": 49.1832,
      "lon": 14.5535
    },
    "averageSpeedKmPerHour": 70.23121071644121,
    "telephone": "+8640661617591"
  },
  {
    "id": 245,
    "name": "Branson Cronin",
    "currentLocation": {
      "lat": 51.0614,
      "lon": 6.312
    },
    "averageSpeedKmPerHour": 87.08245241767446,
    "telephone": "+9561928212895"
  },
  {
    "id": 246,
    "name": "Jovani Predovic",
    "currentLocation": {
      "lat": 52.6383,
      "lon": 7.8634
    },
    "averageSpeedKmPerHour": 88.56854890860262,
    "telephone": "+0902986057053"
  },
  {
    "id": 247,
    "name": "Alfonso Kemmer",
    "currentLocation": {
      "lat": 48.7325,
      "lon": 18.8688
    },
    "averageSpeedKmPerHour": 82.60440884454916,
    "telephone": "+0386226524665"
  },
  {
    "id": 248,
    "name": "Francis Turcotte",
    "currentLocation": {
      "lat": 50.5013,
      "lon": 31.309
    },
    "averageSpeedKmPerHour": 64.46225553629388,
    "telephone": "+4399796730975"
  },
  {
    "id": 249,
    "name": "Mara Raynor",
    "currentLocation": {
      "lat": 48.2976,
      "lon": 10.6716
    },
    "averageSpeedKmPerHour": 83.68913117080325,
    "telephone": "+7897901328626"
  },
  {
    "id": 250,
    "name": "Maryjane Jacobson",
    "currentLocation": {
      "lat": 51.5987,
      "lon": 27.844
    },
    "averageSpeedKmPerHour": 79.7758421995309,
    "telephone": "+2428059468357"
  },
  {
    "id": 251,
    "name": "Bart Bashirian",
    "currentLocation": {
      "lat": 50.2735,
      "lon": 10.7144
    },
    "averageSpeedKmPerHour": 68.89992413703948,
    "telephone": "+8711526468172"
  },
  {
    "id": 252,
    "name": "Marcos Crist",
    "currentLocation": {
      "lat": 47.0865,
      "lon": 26.8858
    },
    "averageSpeedKmPerHour": 64.60117137680531,
    "telephone": "+8707850535631"
  },
  {
    "id": 253,
    "name": "Lizzie Gibson",
    "currentLocation": {
      "lat": 51.4487,
      "lon": 25.1723
    },
    "averageSpeedKmPerHour": 83.02477833991806,
    "telephone": "+9403733804650"
  },
  {
    "id": 254,
    "name": "Ayden Gerlach",
    "currentLocation": {
      "lat": 50.0623,
      "lon": 6.1895
    },
    "averageSpeedKmPerHour": 77.77150674659757,
    "telephone": "+4350371999032"
  },
  {
    "id": 255,
    "name": "Jennings Wilkinson",
    "currentLocation": {
      "lat": 49.3897,
      "lon": 15.3964
    },
    "averageSpeedKmPerHour": 76.50820209192925,
    "telephone": "+9883449270608"
  },
  {
    "id": 256,
    "name": "Tianna Flatley",
    "currentLocation": {
      "lat": 47.8887,
      "lon": 14.1015
    },
    "averageSpeedKmPerHour": 68.07174680759287,
    "telephone": "+7923560385612"
  },
  {
    "id": 257,
    "name": "Easter Howell",
    "currentLocation": {
      "lat": 53.0955,
      "lon": 12.2526
    },
    "averageSpeedKmPerHour": 84.04644012512912,
    "telephone": "+4073421368014"
  },
  {
    "id": 258,
    "name": "Roderick Ondricka",
    "currentLocation": {
      "lat": 50.7657,
      "lon": 27.6564
    },
    "averageSpeedKmPerHour": 71.57473296521479,
    "telephone": "+8882195956228"
  },
  {
    "id": 259,
    "name": "Estella Smith",
    "currentLocation": {
      "lat": 48.1437,
      "lon": 26.9301
    },
    "averageSpeedKmPerHour": 72.10286659219923,
    "telephone": "+0708002856493"
  },
  {
    "id": 260,
    "name": "Kadin Labadie",
    "currentLocation": {
      "lat": 51.9143,
      "lon": 22.9514
    },
    "averageSpeedKmPerHour": 84.11855500615496,
    "telephone": "+4789976384875"
  },
  {
    "id": 261,
    "name": "Kaitlin Rutherford",
    "currentLocation": {
      "lat": 52.88,
      "lon": 10.7704
    },
    "averageSpeedKmPerHour": 60.505359230272155,
    "telephone": "+9898959302096"
  },
  {
    "id": 262,
    "name": "Evie Koch",
    "currentLocation": {
      "lat": 47.8632,
      "lon": 16.9399
    },
    "averageSpeedKmPerHour": 69.13897461004261,
    "telephone": "+8482276010874"
  },
  {
    "id": 263,
    "name": "Karson O'Kon",
    "currentLocation": {
      "lat": 48.8161,
      "lon": 28.4416
    },
    "averageSpeedKmPerHour": 66.99067155944529,
    "telephone": "+2417786190980"
  },
  {
    "id": 264,
    "name": "Benjamin King",
    "currentLocation": {
      "lat": 47.3198,
      "lon": 12.858
    },
    "averageSpeedKmPerHour": 88.95369352707145,
    "telephone": "+7053008555844"
  },
  {
    "id": 265,
    "name": "Kaitlyn Zulauf",
    "currentLocation": {
      "lat": 49.4757,
      "lon": 27.0433
    },
    "averageSpeedKmPerHour": 63.73040852196485,
    "telephone": "+5359891091053"
  },
  {
    "id": 266,
    "name": "Travis Pouros",
    "currentLocation": {
      "lat": 51.5735,
      "lon": 13.5929
    },
    "averageSpeedKmPerHour": 67.94441223685855,
    "telephone": "+6606851989237"
  },
  {
    "id": 267,
    "name": "Beaulah Klocko",
    "currentLocation": {
      "lat": 49.1579,
      "lon": 27.6101
    },
    "averageSpeedKmPerHour": 71.21736293175607,
    "telephone": "+3560208889637"
  },
  {
    "id": 268,
    "name": "Vesta Green",
    "currentLocation": {
      "lat": 47.1089,
      "lon": 25.6658
    },
    "averageSpeedKmPerHour": 80.27665505360747,
    "telephone": "+6132397937387"
  },
  {
    "id": 269,
    "name": "Bette Homenick",
    "currentLocation": {
      "lat": 48.6107,
      "lon": 29.1862
    },
    "averageSpeedKmPerHour": 85.19518783667657,
    "telephone": "+8513593320061"
  },
  {
    "id": 270,
    "name": "Adolfo Schamberger",
    "currentLocation": {
      "lat": 48.2155,
      "lon": 14.579
    },
    "averageSpeedKmPerHour": 89.82265778141081,
    "telephone": "+0481568500720"
  },
  {
    "id": 271,
    "name": "Ressie Kassulke",
    "currentLocation": {
      "lat": 51.8036,
      "lon": 7.5342
    },
    "averageSpeedKmPerHour": 80.51800321206305,
    "telephone": "+1254540306820"
  },
  {
    "id": 272,
    "name": "Walter Halvorson",
    "currentLocation": {
      "lat": 46.5532,
      "lon": 10.9295
    },
    "averageSpeedKmPerHour": 77.21660529500306,
    "telephone": "+3313645912437"
  },
  {
    "id": 273,
    "name": "Erna Cassin",
    "currentLocation": {
      "lat": 51.8422,
      "lon": 5.793
    },
    "averageSpeedKmPerHour": 65.54902579612185,
    "telephone": "+0543378008046"
  },
  {
    "id": 274,
    "name": "Jeremy Lesch",
    "currentLocation": {
      "lat": 50.6151,
      "lon": 10.8419
    },
    "averageSpeedKmPerHour": 60.924849728992,
    "telephone": "+1738129061949"
  },
  {
    "id": 275,
    "name": "Armani Kulas",
    "currentLocation": {
      "lat": 47.3603,
      "lon": 18.7044
    },
    "averageSpeedKmPerHour": 79.53842480689234,
    "telephone": "+8595143525845"
  },
  {
    "id": 276,
    "name": "Beatrice Walter",
    "currentLocation": {
      "lat": 48.4763,
      "lon": 31.2138
    },
    "averageSpeedKmPerHour": 72.2913150359405,
    "telephone": "+2568791366862"
  },
  {
    "id": 277,
    "name": "Titus Harber",
    "currentLocation": {
      "lat": 47.2161,
      "lon": 7.2929
    },
    "averageSpeedKmPerHour": 63.097478731712485,
    "telephone": "+1715893730672"
  },
  {
    "id": 278,
    "name": "Nicholaus Little",
    "currentLocation": {
      "lat": 51.4457,
      "lon": 18.5611
    },
    "averageSpeedKmPerHour": 81.28845254627868,
    "telephone": "+0814106094390"
  },
  {
    "id": 279,
    "name": "Waino Metz",
    "currentLocation": {
      "lat": 48.8031,
      "lon": 14.1826
    },
    "averageSpeedKmPerHour": 71.27381376854183,
    "telephone": "+3033249943202"
  },
  {
    "id": 280,
    "name": "Sandra Haley",
    "currentLocation": {
      "lat": 50.0238,
      "lon": 23.0161
    },
    "averageSpeedKmPerHour": 68.56311539970164,
    "telephone": "+4218426735725"
  },
  {
    "id": 281,
    "name": "Elvis Morar",
    "currentLocation": {
      "lat": 53.4695,
      "lon": 9.1785
    },
    "averageSpeedKmPerHour": 78.51179733154949,
    "telephone": "+2614346426624"
  },
  {
    "id": 282,
    "name": "Francis Schinner",
    "currentLocation": {
      "lat": 52.2662,
      "lon": 30.0442
    },
    "averageSpeedKmPerHour": 63.15312911831319,
    "telephone": "+7113889241277"
  },
  {
    "id": 283,
    "name": "Burdette Simonis",
    "currentLocation": {
      "lat": 49.5488,
      "lon": 11.9967
    },
    "averageSpeedKmPerHour": 62.42902127533277,
    "telephone": "+2243093293178"
  },
  {
    "id": 284,
    "name": "Emilio Stehr",
    "currentLocation": {
      "lat": 53.2716,
      "lon": 9.1305
    },
    "averageSpeedKmPerHour": 82.13114153406883,
    "telephone": "+1737598555898"
  },
  {
    "id": 285,
    "name": "Joannie Price",
    "currentLocation": {
      "lat": 49.6568,
      "lon": 15.7719
    },
    "averageSpeedKmPerHour": 61.357335950579234,
    "telephone": "+4785514286472"
  },
  {
    "id": 286,
    "name": "Myriam Feeney",
    "currentLocation": {
      "lat": 50.8865,
      "lon": 15.9834
    },
    "averageSpeedKmPerHour": 64.21012251592941,
    "telephone": "+7144848818292"
  },
  {
    "id": 287,
    "name": "Anjali Ledner",
    "currentLocation": {
      "lat": 52.053,
      "lon": 30.9336
    },
    "averageSpeedKmPerHour": 86.9682519652151,
    "telephone": "+1940475866981"
  },
  {
    "id": 288,
    "name": "Joshua Kutch",
    "currentLocation": {
      "lat": 52.7855,
      "lon": 18.9279
    },
    "averageSpeedKmPerHour": 81.33546156613829,
    "telephone": "+1485937999989"
  },
  {
    "id": 289,
    "name": "Elda Williamson",
    "currentLocation": {
      "lat": 49.0057,
      "lon": 12.0613
    },
    "averageSpeedKmPerHour": 89.91388923649212,
    "telephone": "+4963247175278"
  },
  {
    "id": 290,
    "name": "Toni Stracke",
    "currentLocation": {
      "lat": 51.9154,
      "lon": 22.2224
    },
    "averageSpeedKmPerHour": 68.45636846703054,
    "telephone": "+6886288573369"
  },
  {
    "id": 291,
    "name": "Giovanna Heidenreich",
    "currentLocation": {
      "lat": 52.0082,
      "lon": 22.5892
    },
    "averageSpeedKmPerHour": 82.39100587296355,
    "telephone": "+2653006948171"
  },
  {
    "id": 292,
    "name": "Demetris Volkman",
    "currentLocation": {
      "lat": 51.5973,
      "lon": 30.7657
    },
    "averageSpeedKmPerHour": 77.73464933634173,
    "telephone": "+2873963813151"
  },
  {
    "id": 293,
    "name": "Deron Hilll",
    "currentLocation": {
      "lat": 47.6938,
      "lon": 6.8813
    },
    "averageSpeedKmPerHour": 77.36330772422555,
    "telephone": "+3263617281675"
  },
  {
    "id": 294,
    "name": "Demario Becker",
    "currentLocation": {
      "lat": 47.9834,
      "lon": 24.8301
    },
    "averageSpeedKmPerHour": 81.37179746933866,
    "telephone": "+0772789947552"
  },
  {
    "id": 295,
    "name": "Jeromy Orn",
    "currentLocation": {
      "lat": 50.1795,
      "lon": 19.6117
    },
    "averageSpeedKmPerHour": 62.86340913882528,
    "telephone": "+0031366617279"
  },
  {
    "id": 296,
    "name": "Frieda Herzog",
    "currentLocation": {
      "lat": 52.5135,
      "lon": 27.4524
    },
    "averageSpeedKmPerHour": 85.3643004724936,
    "telephone": "+4725930577585"
  },
  {
    "id": 297,
    "name": "Marianna Kertzmann",
    "currentLocation": {
      "lat": 49.2414,
      "lon": 30.5973
    },
    "averageSpeedKmPerHour": 86.49233627215499,
    "telephone": "+0206808521048"
  },
  {
    "id": 298,
    "name": "Dovie Lockman",
    "currentLocation": {
      "lat": 48.3925,
      "lon": 29.1194
    },
    "averageSpeedKmPerHour": 80.2254316438906,
    "telephone": "+1852348833261"
  },
  {
    "id": 299,
    "name": "Manley Luettgen",
    "currentLocation": {
      "lat": 47.4515,
      "lon": 30.8575
    },
    "averageSpeedKmPerHour": 69.8453167805413,
    "telephone": "+9158353677695"
  },
  {
    "id": 300,
    "name": "Bernhard Mayer",
    "currentLocation": {
      "lat": 47.8223,
      "lon": 15.2008
    },
    "averageSpeedKmPerHour": 66.9371572646702,
    "telephone": "+1186574374752"
  },
  {
    "id": 301,
    "name": "Daphnee Zemlak",
    "currentLocation": {
      "lat": 46.5922,
      "lon": 14.9792
    },
    "averageSpeedKmPerHour": 82.10776028576464,
    "telephone": "+4200056878761"
  },
  {
    "id": 302,
    "name": "Terry Wisozk",
    "currentLocation": {
      "lat": 51.6987,
      "lon": 31.5038
    },
    "averageSpeedKmPerHour": 68.29905422313152,
    "telephone": "+4988963309355"
  },
  {
    "id": 303,
    "name": "Nasir Morar",
    "currentLocation": {
      "lat": 47.9569,
      "lon": 25.8383
    },
    "averageSpeedKmPerHour": 76.04288022824574,
    "telephone": "+2290220931609"
  },
  {
    "id": 304,
    "name": "Serena Kuvalis",
    "currentLocation": {
      "lat": 47.464,
      "lon": 31.735
    },
    "averageSpeedKmPerHour": 81.35408330792828,
    "telephone": "+0069613698749"
  },
  {
    "id": 305,
    "name": "Andreanne Hansen",
    "currentLocation": {
      "lat": 47.0411,
      "lon": 28.1286
    },
    "averageSpeedKmPerHour": 75.92986365586358,
    "telephone": "+6393469092490"
  },
  {
    "id": 306,
    "name": "Noelia Nitzsche",
    "currentLocation": {
      "lat": 50.3088,
      "lon": 19.6464
    },
    "averageSpeedKmPerHour": 83.46136799859978,
    "telephone": "+6655563412714"
  },
  {
    "id": 307,
    "name": "Rigoberto Welch",
    "currentLocation": {
      "lat": 51.6524,
      "lon": 8.6474
    },
    "averageSpeedKmPerHour": 69.43695231377278,
    "telephone": "+7239316549015"
  },
  {
    "id": 308,
    "name": "Rosie Bogisich",
    "currentLocation": {
      "lat": 52.6109,
      "lon": 25.8606
    },
    "averageSpeedKmPerHour": 84.24965621480207,
    "telephone": "+2000099664231"
  },
  {
    "id": 309,
    "name": "Ole VonRueden",
    "currentLocation": {
      "lat": 53.0192,
      "lon": 7.6792
    },
    "averageSpeedKmPerHour": 67.04544651967115,
    "telephone": "+6552090144194"
  },
  {
    "id": 310,
    "name": "Jean Sipes",
    "currentLocation": {
      "lat": 48.8317,
      "lon": 7.4234
    },
    "averageSpeedKmPerHour": 76.04012659845787,
    "telephone": "+4588120528335"
  },
  {
    "id": 311,
    "name": "Bud Glover",
    "currentLocation": {
      "lat": 51.4561,
      "lon": 6.7677
    },
    "averageSpeedKmPerHour": 81.60485046878945,
    "telephone": "+7387930790582"
  },
  {
    "id": 312,
    "name": "Darron Hane",
    "currentLocation": {
      "lat": 47.0157,
      "lon": 30.8682
    },
    "averageSpeedKmPerHour": 69.94403383329391,
    "telephone": "+5052824345308"
  },
  {
    "id": 313,
    "name": "Fernando Olson",
    "currentLocation": {
      "lat": 47.7681,
      "lon": 9.967
    },
    "averageSpeedKmPerHour": 81.86986089818109,
    "telephone": "+4392757586417"
  },
  {
    "id": 314,
    "name": "Erin Senger",
    "currentLocation": {
      "lat": 46.7904,
      "lon": 17.6017
    },
    "averageSpeedKmPerHour": 71.89547376391256,
    "telephone": "+4001533435389"
  },
  {
    "id": 315,
    "name": "Frankie Mayer",
    "currentLocation": {
      "lat": 47.1882,
      "lon": 6.6732
    },
    "averageSpeedKmPerHour": 77.8926382543797,
    "telephone": "+2759303558218"
  },
  {
    "id": 316,
    "name": "Ariane Swaniawski",
    "currentLocation": {
      "lat": 46.5267,
      "lon": 23.9162
    },
    "averageSpeedKmPerHour": 60.231320813701956,
    "telephone": "+8321174918278"
  },
  {
    "id": 317,
    "name": "Zora Blick",
    "currentLocation": {
      "lat": 47.7914,
      "lon": 19.8508
    },
    "averageSpeedKmPerHour": 83.41959131730263,
    "telephone": "+2588686608528"
  },
  {
    "id": 318,
    "name": "Margarett Weber",
    "currentLocation": {
      "lat": 46.9991,
      "lon": 31.0976
    },
    "averageSpeedKmPerHour": 77.21662162982813,
    "telephone": "+2126553951384"
  },
  {
    "id": 319,
    "name": "Noah Wiza",
    "currentLocation": {
      "lat": 47.2457,
      "lon": 15.1701
    },
    "averageSpeedKmPerHour": 73.53336506952009,
    "telephone": "+2071065808652"
  },
  {
    "id": 320,
    "name": "Chaya Strosin",
    "currentLocation": {
      "lat": 52.4655,
      "lon": 21.7792
    },
    "averageSpeedKmPerHour": 82.00127172958351,
    "telephone": "+9182104252766"
  },
  {
    "id": 321,
    "name": "Electa Kiehn",
    "currentLocation": {
      "lat": 49.5927,
      "lon": 13.3104
    },
    "averageSpeedKmPerHour": 70.53318351199518,
    "telephone": "+0274886627579"
  },
  {
    "id": 322,
    "name": "Brody Leffler",
    "currentLocation": {
      "lat": 48.4726,
      "lon": 17.7003
    },
    "averageSpeedKmPerHour": 83.42621736787322,
    "telephone": "+2885158138578"
  },
  {
    "id": 323,
    "name": "Daren Heller",
    "currentLocation": {
      "lat": 51.633,
      "lon": 14.5157
    },
    "averageSpeedKmPerHour": 86.73394373815597,
    "telephone": "+5874650687737"
  },
  {
    "id": 324,
    "name": "Tara Simonis",
    "currentLocation": {
      "lat": 51.9497,
      "lon": 26.4305
    },
    "averageSpeedKmPerHour": 66.45562677853106,
    "telephone": "+8607330262934"
  },
  {
    "id": 325,
    "name": "Sarina Lowe",
    "currentLocation": {
      "lat": 53.2038,
      "lon": 22.4178
    },
    "averageSpeedKmPerHour": 74.2628061749342,
    "telephone": "+5376644472507"
  },
  {
    "id": 326,
    "name": "Ella Corwin",
    "currentLocation": {
      "lat": 53.3849,
      "lon": 30.6893
    },
    "averageSpeedKmPerHour": 78.94693112537763,
    "telephone": "+3080379921531"
  },
  {
    "id": 327,
    "name": "Kirsten Hyatt",
    "currentLocation": {
      "lat": 47.0223,
      "lon": 24.3327
    },
    "averageSpeedKmPerHour": 77.94338555574316,
    "telephone": "+9888843183686"
  },
  {
    "id": 328,
    "name": "Aubree Spinka",
    "currentLocation": {
      "lat": 52.1653,
      "lon": 7.852
    },
    "averageSpeedKmPerHour": 89.02787020937127,
    "telephone": "+7074609045440"
  },
  {
    "id": 329,
    "name": "Angela Haley",
    "currentLocation": {
      "lat": 47.4993,
      "lon": 5.9197
    },
    "averageSpeedKmPerHour": 63.82584323241692,
    "telephone": "+5180515924758"
  },
  {
    "id": 330,
    "name": "Adeline Jakubowski",
    "currentLocation": {
      "lat": 49.5144,
      "lon": 6.3807
    },
    "averageSpeedKmPerHour": 61.3937754504043,
    "telephone": "+7248239869864"
  },
  {
    "id": 331,
    "name": "Kathryne Schoen",
    "currentLocation": {
      "lat": 53.4163,
      "lon": 25.8388
    },
    "averageSpeedKmPerHour": 76.30553708020537,
    "telephone": "+5863087403725"
  },
  {
    "id": 332,
    "name": "Joaquin Kemmer",
    "currentLocation": {
      "lat": 47.7564,
      "lon": 31.0679
    },
    "averageSpeedKmPerHour": 74.30501811447142,
    "telephone": "+8652050297723"
  },
  {
    "id": 333,
    "name": "Josh Rempel",
    "currentLocation": {
      "lat": 52.4138,
      "lon": 8.008
    },
    "averageSpeedKmPerHour": 72.54629231393814,
    "telephone": "+3954727057931"
  },
  {
    "id": 334,
    "name": "Krystina Keebler",
    "currentLocation": {
      "lat": 49.7266,
      "lon": 19.8128
    },
    "averageSpeedKmPerHour": 65.61260192161402,
    "telephone": "+0871184380023"
  },
  {
    "id": 335,
    "name": "Timmy Kunze",
    "currentLocation": {
      "lat": 47.6788,
      "lon": 19.3313
    },
    "averageSpeedKmPerHour": 62.069529294019986,
    "telephone": "+2320739106660"
  },
  {
    "id": 336,
    "name": "Camryn Batz",
    "currentLocation": {
      "lat": 48.5333,
      "lon": 15.6023
    },
    "averageSpeedKmPerHour": 88.97424740879822,
    "telephone": "+9894766583540"
  },
  {
    "id": 337,
    "name": "Jakob Homenick",
    "currentLocation": {
      "lat": 50.4653,
      "lon": 13.5754
    },
    "averageSpeedKmPerHour": 80.05749572650333,
    "telephone": "+4303846272893"
  },
  {
    "id": 338,
    "name": "Elvis Hackett",
    "currentLocation": {
      "lat": 47.9915,
      "lon": 30.7564
    },
    "averageSpeedKmPerHour": 83.33753444997004,
    "telephone": "+0561896642676"
  },
  {
    "id": 339,
    "name": "Esther Hartmann",
    "currentLocation": {
      "lat": 49.7465,
      "lon": 28.0073
    },
    "averageSpeedKmPerHour": 73.48070784032947,
    "telephone": "+3471094658396"
  },
  {
    "id": 340,
    "name": "Ethel Lakin",
    "currentLocation": {
      "lat": 47.651,
      "lon": 20.0779
    },
    "averageSpeedKmPerHour": 69.66970289149745,
    "telephone": "+7287068068079"
  },
  {
    "id": 341,
    "name": "Elsa Boyer",
    "currentLocation": {
      "lat": 51.1007,
      "lon": 14.4231
    },
    "averageSpeedKmPerHour": 83.7128588719124,
    "telephone": "+3231793951635"
  },
  {
    "id": 342,
    "name": "Ronaldo Beer",
    "currentLocation": {
      "lat": 49.5917,
      "lon": 10.9704
    },
    "averageSpeedKmPerHour": 74.03169012723274,
    "telephone": "+1678659670960"
  },
  {
    "id": 343,
    "name": "Hilario Larson",
    "currentLocation": {
      "lat": 51.2754,
      "lon": 9.6787
    },
    "averageSpeedKmPerHour": 79.02037426369863,
    "telephone": "+6541840549645"
  },
  {
    "id": 344,
    "name": "Emil Schiller",
    "currentLocation": {
      "lat": 46.837,
      "lon": 16.7526
    },
    "averageSpeedKmPerHour": 79.88129312637223,
    "telephone": "+8678385205188"
  },
  {
    "id": 345,
    "name": "Anais Rohan",
    "currentLocation": {
      "lat": 46.5429,
      "lon": 5.8126
    },
    "averageSpeedKmPerHour": 80.30067319267935,
    "telephone": "+5638443685107"
  },
  {
    "id": 346,
    "name": "Andreanne Brekke",
    "currentLocation": {
      "lat": 50.0417,
      "lon": 12.1139
    },
    "averageSpeedKmPerHour": 85.80041830489671,
    "telephone": "+7739725535690"
  },
  {
    "id": 347,
    "name": "Susana Dooley",
    "currentLocation": {
      "lat": 48.0211,
      "lon": 23.514
    },
    "averageSpeedKmPerHour": 86.33013571250146,
    "telephone": "+7192119001652"
  },
  {
    "id": 348,
    "name": "Fern Gleason",
    "currentLocation": {
      "lat": 52.5109,
      "lon": 7.409
    },
    "averageSpeedKmPerHour": 62.10547033852237,
    "telephone": "+4783688669997"
  },
  {
    "id": 349,
    "name": "Raven Murphy",
    "currentLocation": {
      "lat": 51.4102,
      "lon": 7.1111
    },
    "averageSpeedKmPerHour": 68.60593814708294,
    "telephone": "+7599018819335"
  },
  {
    "id": 350,
    "name": "Stephania Bruen",
    "currentLocation": {
      "lat": 51.6985,
      "lon": 30.2339
    },
    "averageSpeedKmPerHour": 65.18511577493078,
    "telephone": "+8087015366127"
  },
  {
    "id": 351,
    "name": "Ines Mosciski",
    "currentLocation": {
      "lat": 52.7798,
      "lon": 20.4619
    },
    "averageSpeedKmPerHour": 82.70413986770444,
    "telephone": "+5920575861748"
  },
  {
    "id": 352,
    "name": "Deven Cole",
    "currentLocation": {
      "lat": 52.782,
      "lon": 20.1746
    },
    "averageSpeedKmPerHour": 80.75120816799878,
    "telephone": "+3556357070753"
  },
  {
    "id": 353,
    "name": "Eliane Labadie",
    "currentLocation": {
      "lat": 50.0878,
      "lon": 10.3371
    },
    "averageSpeedKmPerHour": 67.8660650322392,
    "telephone": "+5596936627848"
  },
  {
    "id": 354,
    "name": "Verna Conroy",
    "currentLocation": {
      "lat": 49.053,
      "lon": 8.4414
    },
    "averageSpeedKmPerHour": 86.82371052323089,
    "telephone": "+0456230071079"
  },
  {
    "id": 355,
    "name": "Coty Wehner",
    "currentLocation": {
      "lat": 52.4681,
      "lon": 23.8949
    },
    "averageSpeedKmPerHour": 63.383798828874156,
    "telephone": "+4040956945573"
  },
  {
    "id": 356,
    "name": "Francisco Murazik",
    "currentLocation": {
      "lat": 53.4674,
      "lon": 17.5731
    },
    "averageSpeedKmPerHour": 68.24340728563388,
    "telephone": "+8371115371006"
  },
  {
    "id": 357,
    "name": "Amparo Klocko",
    "currentLocation": {
      "lat": 49.3202,
      "lon": 19.6766
    },
    "averageSpeedKmPerHour": 74.74915678735579,
    "telephone": "+0806148680657"
  },
  {
    "id": 358,
    "name": "Gerson Larson",
    "currentLocation": {
      "lat": 48.7909,
      "lon": 28.3103
    },
    "averageSpeedKmPerHour": 79.17194936523569,
    "telephone": "+8673099629953"
  },
  {
    "id": 359,
    "name": "Romaine Oberbrunner",
    "currentLocation": {
      "lat": 52.9968,
      "lon": 18.804
    },
    "averageSpeedKmPerHour": 64.25101152642088,
    "telephone": "+0314698799100"
  },
  {
    "id": 360,
    "name": "Gerald Waters",
    "currentLocation": {
      "lat": 46.4191,
      "lon": 24.8244
    },
    "averageSpeedKmPerHour": 89.5523267417931,
    "telephone": "+8123583917558"
  },
  {
    "id": 361,
    "name": "Connie Bashirian",
    "currentLocation": {
      "lat": 49.9334,
      "lon": 31.1454
    },
    "averageSpeedKmPerHour": 83.15734189868931,
    "telephone": "+2464089142122"
  },
  {
    "id": 362,
    "name": "Rose Bahringer",
    "currentLocation": {
      "lat": 47.149,
      "lon": 25.6971
    },
    "averageSpeedKmPerHour": 72.2078930809985,
    "telephone": "+2101165521722"
  },
  {
    "id": 363,
    "name": "Bernita Gleason",
    "currentLocation": {
      "lat": 51.2588,
      "lon": 22.8901
    },
    "averageSpeedKmPerHour": 81.71786099055277,
    "telephone": "+4952251784539"
  },
  {
    "id": 364,
    "name": "Garret Witting",
    "currentLocation": {
      "lat": 52.2281,
      "lon": 11.3045
    },
    "averageSpeedKmPerHour": 76.12406497224896,
    "telephone": "+6232114184499"
  },
  {
    "id": 365,
    "name": "Dovie Volkman",
    "currentLocation": {
      "lat": 47.8787,
      "lon": 10.3758
    },
    "averageSpeedKmPerHour": 85.57833522326982,
    "telephone": "+4989130639893"
  },
  {
    "id": 366,
    "name": "Sadye Osinski",
    "currentLocation": {
      "lat": 52.2085,
      "lon": 31.4833
    },
    "averageSpeedKmPerHour": 66.72655612289341,
    "telephone": "+8309999217690"
  },
  {
    "id": 367,
    "name": "Prudence Cruickshank",
    "currentLocation": {
      "lat": 51.2888,
      "lon": 7.2287
    },
    "averageSpeedKmPerHour": 85.86923807699056,
    "telephone": "+9670872929649"
  },
  {
    "id": 368,
    "name": "Lisandro Lesch",
    "currentLocation": {
      "lat": 51.3375,
      "lon": 31.1331
    },
    "averageSpeedKmPerHour": 66.0363358372366,
    "telephone": "+9687799247074"
  },
  {
    "id": 369,
    "name": "Franz Christiansen",
    "currentLocation": {
      "lat": 48.5665,
      "lon": 9.7783
    },
    "averageSpeedKmPerHour": 80.04579758688456,
    "telephone": "+2247217071868"
  },
  {
    "id": 370,
    "name": "Trycia Bernier",
    "currentLocation": {
      "lat": 47.376,
      "lon": 10.3681
    },
    "averageSpeedKmPerHour": 85.65661761523198,
    "telephone": "+2571366449211"
  },
  {
    "id": 371,
    "name": "Lacy Renner",
    "currentLocation": {
      "lat": 50.9342,
      "lon": 23.2301
    },
    "averageSpeedKmPerHour": 61.64819061678121,
    "telephone": "+3319577855992"
  },
  {
    "id": 372,
    "name": "Cameron Howell",
    "currentLocation": {
      "lat": 49.5967,
      "lon": 18.1084
    },
    "averageSpeedKmPerHour": 79.35373465321523,
    "telephone": "+4021927023630"
  },
  {
    "id": 373,
    "name": "Katlynn Bergnaum",
    "currentLocation": {
      "lat": 50.4926,
      "lon": 10.563
    },
    "averageSpeedKmPerHour": 85.61428228830393,
    "telephone": "+1231716488293"
  },
  {
    "id": 374,
    "name": "Lucious Conroy",
    "currentLocation": {
      "lat": 50.9207,
      "lon": 16.6392
    },
    "averageSpeedKmPerHour": 82.66333488958378,
    "telephone": "+0431423542478"
  },
  {
    "id": 375,
    "name": "Janae Wiza",
    "currentLocation": {
      "lat": 51.1695,
      "lon": 18.2234
    },
    "averageSpeedKmPerHour": 75.77782135453263,
    "telephone": "+1278830490587"
  },
  {
    "id": 376,
    "name": "Burnice Abbott",
    "currentLocation": {
      "lat": 51.1499,
      "lon": 16.4434
    },
    "averageSpeedKmPerHour": 60.20827271982292,
    "telephone": "+0860759819344"
  },
  {
    "id": 377,
    "name": "Kian Crona",
    "currentLocation": {
      "lat": 48.2003,
      "lon": 27.4485
    },
    "averageSpeedKmPerHour": 78.39254060184648,
    "telephone": "+1914515300754"
  },
  {
    "id": 378,
    "name": "Roselyn Stroman",
    "currentLocation": {
      "lat": 48.4404,
      "lon": 24.1992
    },
    "averageSpeedKmPerHour": 66.65724509370149,
    "telephone": "+8206202636913"
  },
  {
    "id": 379,
    "name": "Amanda Dooley",
    "currentLocation": {
      "lat": 50.0911,
      "lon": 6.8519
    },
    "averageSpeedKmPerHour": 82.47535267799037,
    "telephone": "+1793305865767"
  },
  {
    "id": 380,
    "name": "Karli Lynch",
    "currentLocation": {
      "lat": 52.4415,
      "lon": 9.3155
    },
    "averageSpeedKmPerHour": 69.79359208498852,
    "telephone": "+5871750148740"
  },
  {
    "id": 381,
    "name": "Ezra Gulgowski",
    "currentLocation": {
      "lat": 51.6473,
      "lon": 11.228
    },
    "averageSpeedKmPerHour": 66.0414321697421,
    "telephone": "+9399577159602"
  },
  {
    "id": 382,
    "name": "Yolanda Kessler",
    "currentLocation": {
      "lat": 48.0231,
      "lon": 18.8472
    },
    "averageSpeedKmPerHour": 66.0436868418742,
    "telephone": "+6718951682497"
  },
  {
    "id": 383,
    "name": "Dalton Wolf",
    "currentLocation": {
      "lat": 48.8878,
      "lon": 25.7279
    },
    "averageSpeedKmPerHour": 76.15426732845393,
    "telephone": "+5584356726171"
  },
  {
    "id": 384,
    "name": "Jordan Miller",
    "currentLocation": {
      "lat": 51.0257,
      "lon": 30.5205
    },
    "averageSpeedKmPerHour": 71.10626180005299,
    "telephone": "+9650588148794"
  },
  {
    "id": 385,
    "name": "Hunter Rolfson",
    "currentLocation": {
      "lat": 50.6363,
      "lon": 15.048
    },
    "averageSpeedKmPerHour": 78.84820580376295,
    "telephone": "+7847067494327"
  },
  {
    "id": 386,
    "name": "Jodie Torphy",
    "currentLocation": {
      "lat": 49.2805,
      "lon": 26.9011
    },
    "averageSpeedKmPerHour": 85.17167744514171,
    "telephone": "+7298590148065"
  },
  {
    "id": 387,
    "name": "Rollin Harris",
    "currentLocation": {
      "lat": 46.7011,
      "lon": 18.7658
    },
    "averageSpeedKmPerHour": 86.77511062076239,
    "telephone": "+6591840180491"
  },
  {
    "id": 388,
    "name": "Olga Rippin",
    "currentLocation": {
      "lat": 52.7574,
      "lon": 13.7137
    },
    "averageSpeedKmPerHour": 69.24767548734116,
    "telephone": "+5610958673547"
  },
  {
    "id": 389,
    "name": "Gracie Ebert",
    "currentLocation": {
      "lat": 48.6352,
      "lon": 29.0409
    },
    "averageSpeedKmPerHour": 77.32977828177815,
    "telephone": "+1274770001131"
  },
  {
    "id": 390,
    "name": "Hailey Gottlieb",
    "currentLocation": {
      "lat": 53.4703,
      "lon": 7.1335
    },
    "averageSpeedKmPerHour": 66.85353006398441,
    "telephone": "+3115184835653"
  },
  {
    "id": 391,
    "name": "Maximillia Emmerich",
    "currentLocation": {
      "lat": 46.8259,
      "lon": 11.1476
    },
    "averageSpeedKmPerHour": 71.20064363895392,
    "telephone": "+1035660096460"
  },
  {
    "id": 392,
    "name": "Joany Balistreri",
    "currentLocation": {
      "lat": 52.4285,
      "lon": 13.4675
    },
    "averageSpeedKmPerHour": 67.45772249482637,
    "telephone": "+2307581272225"
  },
  {
    "id": 393,
    "name": "Keenan Doyle",
    "currentLocation": {
      "lat": 48.1477,
      "lon": 20.3076
    },
    "averageSpeedKmPerHour": 72.39962710960057,
    "telephone": "+5681733109588"
  },
  {
    "id": 394,
    "name": "Lula Reilly",
    "currentLocation": {
      "lat": 49.4232,
      "lon": 7.1856
    },
    "averageSpeedKmPerHour": 61.37455117660434,
    "telephone": "+1987114072137"
  },
  {
    "id": 395,
    "name": "Estell Carroll",
    "currentLocation": {
      "lat": 47.0457,
      "lon": 29.445
    },
    "averageSpeedKmPerHour": 77.9447328392393,
    "telephone": "+9669056299321"
  },
  {
    "id": 396,
    "name": "Ettie Blick",
    "currentLocation": {
      "lat": 50.5182,
      "lon": 31.3415
    },
    "averageSpeedKmPerHour": 66.71946527156396,
    "telephone": "+6951837228188"
  },
  {
    "id": 397,
    "name": "Jena Labadie",
    "currentLocation": {
      "lat": 52.8328,
      "lon": 18.4152
    },
    "averageSpeedKmPerHour": 82.37625045511379,
    "telephone": "+6323850028295"
  },
  {
    "id": 398,
    "name": "Kylee Kuhic",
    "currentLocation": {
      "lat": 48.5168,
      "lon": 30.075
    },
    "averageSpeedKmPerHour": 70.18498355484849,
    "telephone": "+9816390055371"
  },
  {
    "id": 399,
    "name": "Tristian Stehr",
    "currentLocation": {
      "lat": 50.4704,
      "lon": 17.9435
    },
    "averageSpeedKmPerHour": 84.55266317741986,
    "telephone": "+0114587360372"
  },
  {
    "id": 400,
    "name": "Viva Wolff",
    "currentLocation": {
      "lat": 48.2864,
      "lon": 30.0173
    },
    "averageSpeedKmPerHour": 71.58458553792207,
    "telephone": "+4445586214006"
  },
  {
    "id": 401,
    "name": "Zita Kerluke",
    "currentLocation": {
      "lat": 47.9564,
      "lon": 11.062
    },
    "averageSpeedKmPerHour": 87.21863993123408,
    "telephone": "+7775978015547"
  },
  {
    "id": 402,
    "name": "Samantha Stokes",
    "currentLocation": {
      "lat": 47.3342,
      "lon": 14.7408
    },
    "averageSpeedKmPerHour": 73.94112820375695,
    "telephone": "+2078989206142"
  },
  {
    "id": 403,
    "name": "Nathaniel Greenfelder",
    "currentLocation": {
      "lat": 50.1551,
      "lon": 30.4296
    },
    "averageSpeedKmPerHour": 82.81542906556808,
    "telephone": "+2457183074474"
  },
  {
    "id": 404,
    "name": "Lauren Krajcik",
    "currentLocation": {
      "lat": 48.8137,
      "lon": 14.7362
    },
    "averageSpeedKmPerHour": 82.62592241163597,
    "telephone": "+2498704757638"
  },
  {
    "id": 405,
    "name": "Alessandra Ankunding",
    "currentLocation": {
      "lat": 46.6266,
      "lon": 16.953
    },
    "averageSpeedKmPerHour": 72.71154798364223,
    "telephone": "+9236340962737"
  },
  {
    "id": 406,
    "name": "Gladys Zboncak",
    "currentLocation": {
      "lat": 48.922,
      "lon": 19.4083
    },
    "averageSpeedKmPerHour": 67.43281806855714,
    "telephone": "+8657830590415"
  },
  {
    "id": 407,
    "name": "Vern Hyatt",
    "currentLocation": {
      "lat": 50.7835,
      "lon": 10.6465
    },
    "averageSpeedKmPerHour": 60.72182655201746,
    "telephone": "+0870384078544"
  },
  {
    "id": 408,
    "name": "Demetris Pagac",
    "currentLocation": {
      "lat": 51.3704,
      "lon": 19.674
    },
    "averageSpeedKmPerHour": 61.97976051312057,
    "telephone": "+1123638042734"
  },
  {
    "id": 409,
    "name": "Chelsey Bradtke",
    "currentLocation": {
      "lat": 49.0409,
      "lon": 12.8138
    },
    "averageSpeedKmPerHour": 83.87252878599799,
    "telephone": "+6594759630381"
  },
  {
    "id": 410,
    "name": "Felton Doyle",
    "currentLocation": {
      "lat": 50.7237,
      "lon": 16.347
    },
    "averageSpeedKmPerHour": 69.78311609702787,
    "telephone": "+3900156752064"
  },
  {
    "id": 411,
    "name": "Myriam Gutmann",
    "currentLocation": {
      "lat": 50.0453,
      "lon": 30.9063
    },
    "averageSpeedKmPerHour": 88.40704470845708,
    "telephone": "+1602429839923"
  },
  {
    "id": 412,
    "name": "Steve Yost",
    "currentLocation": {
      "lat": 47.4063,
      "lon": 16.3674
    },
    "averageSpeedKmPerHour": 76.44732061713081,
    "telephone": "+1171440850257"
  },
  {
    "id": 413,
    "name": "Hiram Conroy",
    "currentLocation": {
      "lat": 48.1052,
      "lon": 19.5934
    },
    "averageSpeedKmPerHour": 65.79668751837754,
    "telephone": "+4811476039374"
  },
  {
    "id": 414,
    "name": "Joey Stamm",
    "currentLocation": {
      "lat": 50.2767,
      "lon": 22.7164
    },
    "averageSpeedKmPerHour": 78.4460239152273,
    "telephone": "+7210003742250"
  },
  {
    "id": 415,
    "name": "Amir Jast",
    "currentLocation": {
      "lat": 50.3383,
      "lon": 5.3911
    },
    "averageSpeedKmPerHour": 64.69784444231905,
    "telephone": "+9338558979848"
  },
  {
    "id": 416,
    "name": "Waino Harris",
    "currentLocation": {
      "lat": 47.77,
      "lon": 27.6093
    },
    "averageSpeedKmPerHour": 72.61949254482806,
    "telephone": "+2471632344675"
  },
  {
    "id": 417,
    "name": "Darlene Mann",
    "currentLocation": {
      "lat": 51.8998,
      "lon": 20.2889
    },
    "averageSpeedKmPerHour": 71.86308914575545,
    "telephone": "+0412102351033"
  },
  {
    "id": 418,
    "name": "Olga Barrows",
    "currentLocation": {
      "lat": 46.6668,
      "lon": 23.1617
    },
    "averageSpeedKmPerHour": 77.76224826965694,
    "telephone": "+0249070870983"
  },
  {
    "id": 419,
    "name": "Cullen Veum",
    "currentLocation": {
      "lat": 46.4421,
      "lon": 27.8891
    },
    "averageSpeedKmPerHour": 89.72262761150022,
    "telephone": "+6710005893442"
  },
  {
    "id": 420,
    "name": "Josephine Cole",
    "currentLocation": {
      "lat": 47.94,
      "lon": 10.2223
    },
    "averageSpeedKmPerHour": 86.37680248094264,
    "telephone": "+0550436226849"
  },
  {
    "id": 421,
    "name": "Sid Kuhlman",
    "currentLocation": {
      "lat": 47.4081,
      "lon": 12.4539
    },
    "averageSpeedKmPerHour": 68.93713944993972,
    "telephone": "+9624132755555"
  },
  {
    "id": 422,
    "name": "Josefina Klein",
    "currentLocation": {
      "lat": 50.1753,
      "lon": 29.4955
    },
    "averageSpeedKmPerHour": 63.71130716506721,
    "telephone": "+3661999731894"
  },
  {
    "id": 423,
    "name": "Deven Mitchell",
    "currentLocation": {
      "lat": 49.1399,
      "lon": 23.4384
    },
    "averageSpeedKmPerHour": 88.58172521069181,
    "telephone": "+9329297402578"
  },
  {
    "id": 424,
    "name": "Cordelia Cassin",
    "currentLocation": {
      "lat": 46.8614,
      "lon": 13.2326
    },
    "averageSpeedKmPerHour": 60.22214744712937,
    "telephone": "+8353461372081"
  },
  {
    "id": 425,
    "name": "Keira King",
    "currentLocation": {
      "lat": 53.4065,
      "lon": 12.922
    },
    "averageSpeedKmPerHour": 75.63945460302722,
    "telephone": "+0458421536459"
  },
  {
    "id": 426,
    "name": "Naomi Marks",
    "currentLocation": {
      "lat": 51.2114,
      "lon": 15.0525
    },
    "averageSpeedKmPerHour": 72.92242497434455,
    "telephone": "+2930106156829"
  },
  {
    "id": 427,
    "name": "Christine Hyatt",
    "currentLocation": {
      "lat": 52.6892,
      "lon": 15.8407
    },
    "averageSpeedKmPerHour": 65.72267124280452,
    "telephone": "+4715797030182"
  },
  {
    "id": 428,
    "name": "Emmy Rice",
    "currentLocation": {
      "lat": 49.9487,
      "lon": 20.7708
    },
    "averageSpeedKmPerHour": 63.64563795104949,
    "telephone": "+9010500313927"
  },
  {
    "id": 429,
    "name": "Jewel Zieme",
    "currentLocation": {
      "lat": 52.3167,
      "lon": 17.0846
    },
    "averageSpeedKmPerHour": 80.54491461154238,
    "telephone": "+5459183602863"
  },
  {
    "id": 430,
    "name": "Bella Grimes",
    "currentLocation": {
      "lat": 50.8332,
      "lon": 18.2488
    },
    "averageSpeedKmPerHour": 73.66118706111592,
    "telephone": "+1299856642175"
  },
  {
    "id": 431,
    "name": "Collin Prosacco",
    "currentLocation": {
      "lat": 48.1089,
      "lon": 6.5176
    },
    "averageSpeedKmPerHour": 60.838747726509034,
    "telephone": "+8121624748712"
  },
  {
    "id": 432,
    "name": "Earnestine Goyette",
    "currentLocation": {
      "lat": 49.2519,
      "lon": 24.4607
    },
    "averageSpeedKmPerHour": 67.20504751548265,
    "telephone": "+1560645225234"
  },
  {
    "id": 433,
    "name": "Vern Bergstrom",
    "currentLocation": {
      "lat": 52.8335,
      "lon": 15.9108
    },
    "averageSpeedKmPerHour": 62.210062116356745,
    "telephone": "+4210972745197"
  },
  {
    "id": 434,
    "name": "Emilio Dooley",
    "currentLocation": {
      "lat": 53.1177,
      "lon": 6.5961
    },
    "averageSpeedKmPerHour": 74.05755166430801,
    "telephone": "+5942997230244"
  },
  {
    "id": 435,
    "name": "Nestor Schumm",
    "currentLocation": {
      "lat": 50.2888,
      "lon": 11.8311
    },
    "averageSpeedKmPerHour": 82.68274298820482,
    "telephone": "+8558709511363"
  },
  {
    "id": 436,
    "name": "Alf Goodwin",
    "currentLocation": {
      "lat": 47.3176,
      "lon": 26.9483
    },
    "averageSpeedKmPerHour": 68.60584257755613,
    "telephone": "+3231251072802"
  },
  {
    "id": 437,
    "name": "Bernard Brakus",
    "currentLocation": {
      "lat": 49.7109,
      "lon": 12.6511
    },
    "averageSpeedKmPerHour": 79.13483323051207,
    "telephone": "+4684748846510"
  },
  {
    "id": 438,
    "name": "Margarette Veum",
    "currentLocation": {
      "lat": 52.9232,
      "lon": 25.3662
    },
    "averageSpeedKmPerHour": 82.6715833039829,
    "telephone": "+6784813642980"
  },
  {
    "id": 439,
    "name": "Nathen Zulauf",
    "currentLocation": {
      "lat": 47.8332,
      "lon": 18.1521
    },
    "averageSpeedKmPerHour": 67.76357576259245,
    "telephone": "+5989670776024"
  },
  {
    "id": 440,
    "name": "Osborne Kerluke",
    "currentLocation": {
      "lat": 52.4734,
      "lon": 17.7195
    },
    "averageSpeedKmPerHour": 73.48812081358352,
    "telephone": "+7095618071173"
  },
  {
    "id": 441,
    "name": "Maximillia Mayer",
    "currentLocation": {
      "lat": 51.5371,
      "lon": 23.2934
    },
    "averageSpeedKmPerHour": 65.22314113154431,
    "telephone": "+1631754990955"
  },
  {
    "id": 442,
    "name": "Betsy Kessler",
    "currentLocation": {
      "lat": 53.4997,
      "lon": 28.1193
    },
    "averageSpeedKmPerHour": 69.73450916730627,
    "telephone": "+4436297900616"
  },
  {
    "id": 443,
    "name": "Brian Gleason",
    "currentLocation": {
      "lat": 50.868,
      "lon": 13.9551
    },
    "averageSpeedKmPerHour": 65.45492047061359,
    "telephone": "+1522612359371"
  },
  {
    "id": 444,
    "name": "Domenica Deckow",
    "currentLocation": {
      "lat": 48.8444,
      "lon": 6.3569
    },
    "averageSpeedKmPerHour": 71.76125800828905,
    "telephone": "+8732252630627"
  },
  {
    "id": 445,
    "name": "Josue Konopelski",
    "currentLocation": {
      "lat": 53.3791,
      "lon": 18.0548
    },
    "averageSpeedKmPerHour": 87.69782656627484,
    "telephone": "+9676222463808"
  },
  {
    "id": 446,
    "name": "Camilla Conn",
    "currentLocation": {
      "lat": 52.15,
      "lon": 25.5881
    },
    "averageSpeedKmPerHour": 81.93515610635795,
    "telephone": "+5561950938447"
  },
  {
    "id": 447,
    "name": "Adelle Schuppe",
    "currentLocation": {
      "lat": 53.3064,
      "lon": 29.7482
    },
    "averageSpeedKmPerHour": 73.97460982492296,
    "telephone": "+3047103673018"
  },
  {
    "id": 448,
    "name": "Sanford Kessler",
    "currentLocation": {
      "lat": 47.2368,
      "lon": 20.1904
    },
    "averageSpeedKmPerHour": 75.887794692842,
    "telephone": "+8281767782238"
  },
  {
    "id": 449,
    "name": "Cade Pfannerstill",
    "currentLocation": {
      "lat": 50.8948,
      "lon": 25.4233
    },
    "averageSpeedKmPerHour": 85.14378652102585,
    "telephone": "+3030464379215"
  },
  {
    "id": 450,
    "name": "Mayra Homenick",
    "currentLocation": {
      "lat": 50.3772,
      "lon": 17.0434
    },
    "averageSpeedKmPerHour": 88.26360091845125,
    "telephone": "+0137354416771"
  },
  {
    "id": 451,
    "name": "Kiarra Walsh",
    "currentLocation": {
      "lat": 48.6399,
      "lon": 21.7327
    },
    "averageSpeedKmPerHour": 74.44577466082873,
    "telephone": "+4456146378342"
  },
  {
    "id": 452,
    "name": "Jaleel Krajcik",
    "currentLocation": {
      "lat": 52.5953,
      "lon": 22.8086
    },
    "averageSpeedKmPerHour": 69.33600344351603,
    "telephone": "+1992650549793"
  },
  {
    "id": 453,
    "name": "Kadin Becker",
    "currentLocation": {
      "lat": 51.118,
      "lon": 13.5827
    },
    "averageSpeedKmPerHour": 68.28333179819204,
    "telephone": "+6978999409558"
  },
  {
    "id": 454,
    "name": "Rowan Conroy",
    "currentLocation": {
      "lat": 51.0982,
      "lon": 30.312
    },
    "averageSpeedKmPerHour": 71.99033773500825,
    "telephone": "+1423581928088"
  },
  {
    "id": 455,
    "name": "Jettie Collier",
    "currentLocation": {
      "lat": 49.5705,
      "lon": 12.1859
    },
    "averageSpeedKmPerHour": 74.30488713463595,
    "telephone": "+1712741225939"
  },
  {
    "id": 456,
    "name": "Krystal Hoeger",
    "currentLocation": {
      "lat": 49.4259,
      "lon": 28.7316
    },
    "averageSpeedKmPerHour": 72.43639992139806,
    "telephone": "+3071369941775"
  },
  {
    "id": 457,
    "name": "Antonia Borer",
    "currentLocation": {
      "lat": 51.5115,
      "lon": 17.9075
    },
    "averageSpeedKmPerHour": 65.09526455016133,
    "telephone": "+6361440430496"
  },
  {
    "id": 458,
    "name": "General Feil",
    "currentLocation": {
      "lat": 47.0349,
      "lon": 8.1203
    },
    "averageSpeedKmPerHour": 66.38055133297829,
    "telephone": "+3413138497336"
  },
  {
    "id": 459,
    "name": "Jazmin McGlynn",
    "currentLocation": {
      "lat": 48.0719,
      "lon": 20.9721
    },
    "averageSpeedKmPerHour": 65.14432745420318,
    "telephone": "+6116539159098"
  },
  {
    "id": 460,
    "name": "Henry Beahan",
    "currentLocation": {
      "lat": 47.2725,
      "lon": 10.1259
    },
    "averageSpeedKmPerHour": 73.61936120726878,
    "telephone": "+6426269176434"
  },
  {
    "id": 461,
    "name": "Alexandria Mayert",
    "currentLocation": {
      "lat": 49.344,
      "lon": 21.5566
    },
    "averageSpeedKmPerHour": 88.29148536629476,
    "telephone": "+6512618853922"
  },
  {
    "id": 462,
    "name": "Eladio Tremblay",
    "currentLocation": {
      "lat": 49.7367,
      "lon": 24.4586
    },
    "averageSpeedKmPerHour": 84.45906878338,
    "telephone": "+8130522018511"
  },
  {
    "id": 463,
    "name": "Eleanora Kertzmann",
    "currentLocation": {
      "lat": 52.4199,
      "lon": 16.6311
    },
    "averageSpeedKmPerHour": 78.31227686662267,
    "telephone": "+6383485600656"
  },
  {
    "id": 464,
    "name": "Godfrey Reilly",
    "currentLocation": {
      "lat": 52.1328,
      "lon": 9.9515
    },
    "averageSpeedKmPerHour": 81.4234470502826,
    "telephone": "+9213162288366"
  },
  {
    "id": 465,
    "name": "Francesco Lindgren",
    "currentLocation": {
      "lat": 51.0742,
      "lon": 28.4975
    },
    "averageSpeedKmPerHour": 62.072597377496436,
    "telephone": "+5508813281238"
  },
  {
    "id": 466,
    "name": "Dessie Abbott",
    "currentLocation": {
      "lat": 52.107,
      "lon": 13.4087
    },
    "averageSpeedKmPerHour": 89.27949203151596,
    "telephone": "+2381766609855"
  },
  {
    "id": 467,
    "name": "Roel Quigley",
    "currentLocation": {
      "lat": 46.3695,
      "lon": 29.0821
    },
    "averageSpeedKmPerHour": 78.48252103328124,
    "telephone": "+3890158899971"
  },
  {
    "id": 468,
    "name": "Evans Conroy",
    "currentLocation": {
      "lat": 49.1341,
      "lon": 21.3997
    },
    "averageSpeedKmPerHour": 62.457985066507995,
    "telephone": "+9723334701051"
  },
  {
    "id": 469,
    "name": "Lilian Cummings",
    "currentLocation": {
      "lat": 49.62,
      "lon": 16.2714
    },
    "averageSpeedKmPerHour": 68.20661476751266,
    "telephone": "+7187515700720"
  },
  {
    "id": 470,
    "name": "Davon Cronin",
    "currentLocation": {
      "lat": 50.2372,
      "lon": 25.0792
    },
    "averageSpeedKmPerHour": 69.29827135498331,
    "telephone": "+0296569644680"
  },
  {
    "id": 471,
    "name": "Guy Moen",
    "currentLocation": {
      "lat": 49.817,
      "lon": 12.4823
    },
    "averageSpeedKmPerHour": 62.64029904982645,
    "telephone": "+9163726521891"
  },
  {
    "id": 472,
    "name": "Henri Heidenreich",
    "currentLocation": {
      "lat": 52.2379,
      "lon": 17.1589
    },
    "averageSpeedKmPerHour": 70.44006944800634,
    "telephone": "+1341729243764"
  },
  {
    "id": 473,
    "name": "Zander Wilderman",
    "currentLocation": {
      "lat": 50.0076,
      "lon": 16.3812
    },
    "averageSpeedKmPerHour": 78.9853761006518,
    "telephone": "+4425687405143"
  },
  {
    "id": 474,
    "name": "Mervin Brekke",
    "currentLocation": {
      "lat": 51.852,
      "lon": 10.9549
    },
    "averageSpeedKmPerHour": 70.51122892627231,
    "telephone": "+3416291780051"
  },
  {
    "id": 475,
    "name": "Bennie Schneider",
    "currentLocation": {
      "lat": 46.6242,
      "lon": 21.4577
    },
    "averageSpeedKmPerHour": 82.88099249273127,
    "telephone": "+9939093140409"
  },
  {
    "id": 476,
    "name": "Eusebio Kozey",
    "currentLocation": {
      "lat": 52.7171,
      "lon": 12.1331
    },
    "averageSpeedKmPerHour": 78.85761103730303,
    "telephone": "+3345993808652"
  },
  {
    "id": 477,
    "name": "Maximillia Towne",
    "currentLocation": {
      "lat": 50.6241,
      "lon": 31.2325
    },
    "averageSpeedKmPerHour": 68.36584619406999,
    "telephone": "+6092025272710"
  },
  {
    "id": 478,
    "name": "Daryl Hermann",
    "currentLocation": {
      "lat": 52.6216,
      "lon": 29.6766
    },
    "averageSpeedKmPerHour": 68.18043577869176,
    "telephone": "+0170309475196"
  },
  {
    "id": 479,
    "name": "Virginia Pollich",
    "currentLocation": {
      "lat": 46.3101,
      "lon": 10.495
    },
    "averageSpeedKmPerHour": 60.17700795810305,
    "telephone": "+8253869886182"
  },
  {
    "id": 480,
    "name": "Ramon Olson",
    "currentLocation": {
      "lat": 51.1875,
      "lon": 22.8172
    },
    "averageSpeedKmPerHour": 89.7913303196819,
    "telephone": "+4365254615197"
  },
  {
    "id": 481,
    "name": "Chelsie Pacocha",
    "currentLocation": {
      "lat": 47.108,
      "lon": 6.71
    },
    "averageSpeedKmPerHour": 87.0605460365384,
    "telephone": "+1507051688943"
  },
  {
    "id": 482,
    "name": "Tobin Lindgren",
    "currentLocation": {
      "lat": 47.8007,
      "lon": 30.7397
    },
    "averageSpeedKmPerHour": 82.45927567769463,
    "telephone": "+3639635395052"
  },
  {
    "id": 483,
    "name": "Evangeline Rowe",
    "currentLocation": {
      "lat": 48.9411,
      "lon": 29.3447
    },
    "averageSpeedKmPerHour": 87.06952482046017,
    "telephone": "+4362812668383"
  },
  {
    "id": 484,
    "name": "Kyler Wilkinson",
    "currentLocation": {
      "lat": 48.6226,
      "lon": 18.8729
    },
    "averageSpeedKmPerHour": 75.64968775241846,
    "telephone": "+6792172822182"
  },
  {
    "id": 485,
    "name": "Gerhard Streich",
    "currentLocation": {
      "lat": 50.1961,
      "lon": 17.253
    },
    "averageSpeedKmPerHour": 78.1151460745653,
    "telephone": "+9619332833126"
  },
  {
    "id": 486,
    "name": "Delores Oberbrunner",
    "currentLocation": {
      "lat": 51.5338,
      "lon": 23.4377
    },
    "averageSpeedKmPerHour": 73.93662362290809,
    "telephone": "+1195758621886"
  },
  {
    "id": 487,
    "name": "Emma Renner",
    "currentLocation": {
      "lat": 46.4694,
      "lon": 20.0996
    },
    "averageSpeedKmPerHour": 85.34822775347665,
    "telephone": "+7351652432824"
  },
  {
    "id": 488,
    "name": "Asia Thiel",
    "currentLocation": {
      "lat": 46.5146,
      "lon": 31.2788
    },
    "averageSpeedKmPerHour": 65.16832176674161,
    "telephone": "+9634255335509"
  },
  {
    "id": 489,
    "name": "Elroy Altenwerth",
    "currentLocation": {
      "lat": 50.5785,
      "lon": 11.0016
    },
    "averageSpeedKmPerHour": 89.5142771986923,
    "telephone": "+5930945494663"
  },
  {
    "id": 490,
    "name": "Summer Moen",
    "currentLocation": {
      "lat": 48.9938,
      "lon": 11.8844
    },
    "averageSpeedKmPerHour": 65.60094226215338,
    "telephone": "+6280954657649"
  },
  {
    "id": 491,
    "name": "Orie Hahn",
    "currentLocation": {
      "lat": 50.6349,
      "lon": 11.8324
    },
    "averageSpeedKmPerHour": 76.70954473124624,
    "telephone": "+9922116353803"
  },
  {
    "id": 492,
    "name": "Marlee Gerlach",
    "currentLocation": {
      "lat": 50.1155,
      "lon": 17.2786
    },
    "averageSpeedKmPerHour": 77.54327132736498,
    "telephone": "+4687148547348"
  },
  {
    "id": 493,
    "name": "Oran Walsh",
    "currentLocation": {
      "lat": 48.6102,
      "lon": 26.5126
    },
    "averageSpeedKmPerHour": 73.86106405479971,
    "telephone": "+1247235775716"
  },
  {
    "id": 494,
    "name": "Henri Nolan",
    "currentLocation": {
      "lat": 49.5822,
      "lon": 25.7877
    },
    "averageSpeedKmPerHour": 77.88902335789962,
    "telephone": "+1138630274276"
  },
  {
    "id": 495,
    "name": "Adan Ryan",
    "currentLocation": {
      "lat": 50.4523,
      "lon": 26.0174
    },
    "averageSpeedKmPerHour": 81.41157154468,
    "telephone": "+5831599824405"
  },
  {
    "id": 496,
    "name": "Theo Collins",
    "currentLocation": {
      "lat": 50.4927,
      "lon": 27.3962
    },
    "averageSpeedKmPerHour": 71.65189970498474,
    "telephone": "+0855314788611"
  },
  {
    "id": 497,
    "name": "Nakia Mertz",
    "currentLocation": {
      "lat": 48.1321,
      "lon": 19.8417
    },
    "averageSpeedKmPerHour": 64.56641775334003,
    "telephone": "+6009572579258"
  },
  {
    "id": 498,
    "name": "Roger Schuppe",
    "currentLocation": {
      "lat": 48.8298,
      "lon": 19.07
    },
    "averageSpeedKmPerHour": 65.46272784976297,
    "telephone": "+8306503609935"
  },
  {
    "id": 499,
    "name": "Samir Franecki",
    "currentLocation": {
      "lat": 50.2145,
      "lon": 7.8698
    },
    "averageSpeedKmPerHour": 70.3478776685207,
    "telephone": "+1747165513420"
  }
]
